timestamp,TimeS,DesRoll,Roll,DesPitch,Pitch,DesYaw,Yaw,AEKF
1774627427.584559,2675.023288,-0.44779714941978455,-0.44779708981513977,0.11798956245183945,0.11798954755067825,233.54173278808594,233.54173278808594,3
1774627427.624703,2675.063432,-0.4447873532772064,-0.44478732347488403,0.11816991120576859,0.11816989630460739,233.54457092285156,233.54457092285156,3
1774627427.665063,2675.103792,-0.4430494010448456,-0.44304928183555603,0.11583762615919113,0.11583753675222397,233.54522705078125,233.54522705078125,3
1774627427.704721,2675.14345,-0.44554752111434937,-0.44554755091667175,0.11628911644220352,0.11628904938697815,233.54336547851562,233.54336547851562,3
1774627427.744577,2675.183306,-0.45061877369880676,-0.45061877369880676,0.11835520714521408,0.11835514008998871,233.53909301757812,233.53909301757812,3
1774627427.784579,2675.223308,-0.4489027261734009,-0.4489027261734009,0.11858884245157242,0.11858884245157242,233.53810119628906,233.53810119628906,3
1774627427.824544,2675.263273,-0.4450576603412628,-0.4450575113296509,0.11935689300298691,0.11935682594776154,233.53936767578125,233.53936767578125,3
1774627427.864832,2675.303561,-0.4427609145641327,-0.44276103377342224,0.117930106818676,0.11793005466461182,233.54122924804688,233.54122924804688,3
1774627427.904617,2675.343346,-0.44336795806884766,-0.44336792826652527,0.11687280237674713,0.11687282472848892,233.5394744873047,233.5394744873047,3
1774627427.9446208,2675.38335,-0.4469243586063385,-0.44692420959472656,0.1177373006939888,0.11773723363876343,233.53738403320312,233.53738403320312,3
1774627427.984624,2675.423353,-0.45072367787361145,-0.4507236182689667,0.11908208578824997,0.11908204853534698,233.53292846679688,233.53292846679688,3
1774627428.024548,2675.463277,-0.44628849625587463,-0.446288526058197,0.1182553693652153,0.11825535446405411,233.5336456298828,233.53366088867188,3
1774627428.0647519,2675.503481,-0.443834513425827,-0.44383445382118225,0.11889314651489258,0.11889314651489258,233.53648376464844,233.5364990234375,3
1774627428.1046278,2675.543357,-0.4427221417427063,-0.4427221715450287,0.11667867749929428,0.11667866259813309,233.53704833984375,233.5370635986328,3
1774627428.144611,2675.58334,-0.4443261921405792,-0.4443262219429016,0.11630114912986755,0.11630108952522278,233.53402709960938,233.53402709960938,3
1774627428.184491,2675.62322,-0.44882285594940186,-0.4488227963447571,0.11775034666061401,0.11775031685829163,233.5309295654297,233.53091430664062,3
1774627428.224547,2675.663276,-0.447818398475647,-0.4478183388710022,0.11941718310117722,0.11941711604595184,233.5297393798828,233.52972412109375,3
1774627428.264781,2675.70351,-0.44425711035728455,-0.444256991147995,0.11991635710000992,0.11991627514362335,233.52993774414062,233.52993774414062,3
1774627428.304601,2675.74333,-0.4399380385875702,-0.4399380385875702,0.11772793531417847,0.11772793531417847,233.53335571289062,233.53335571289062,3
1774627428.344791,2675.78352,-0.43950533866882324,-0.4395052194595337,0.11724528670310974,0.11724520474672318,233.53152465820312,233.53152465820312,3
1774627428.384799,2675.823528,-0.44518929719924927,-0.44518929719924927,0.12018070369958878,0.12018074840307236,233.5283203125,233.5283203125,3
1774627428.424883,2675.863612,-0.4484110176563263,-0.4484110176563263,0.12027334421873093,0.12027332931756973,233.52569580078125,233.5257110595703,3
1774627428.4649189,2675.903648,-0.44524654746055603,-0.4452463984489441,0.12127017229795456,0.12127004563808441,233.52468872070312,233.52468872070312,3
1774627428.504799,2675.943528,-0.44097304344177246,-0.4409730136394501,0.12083020061254501,0.12083006650209427,233.52835083007812,233.52835083007812,3
1774627428.544746,2675.983475,-0.43863654136657715,-0.43863651156425476,0.11933441460132599,0.11933434754610062,233.52987670898438,233.5298614501953,3
1774627428.5847359,2676.023465,-0.4398912191390991,-0.4398912191390991,0.1203603446483612,0.12036030739545822,233.52767944335938,233.52767944335938,3
1774627428.625048,2676.063777,-0.4460327923297882,-0.44603273272514343,0.12150101363658905,0.12150101363658905,233.5242919921875,233.52432250976562,3
1774627428.664608,2676.103337,-0.4456709325313568,-0.44567087292671204,0.12245414406061172,0.12245406955480576,233.52252197265625,233.52249145507812,3
1774627428.704822,2676.143551,-0.44042977690696716,-0.44042983651161194,0.12287450581789017,0.12287448346614838,233.5223388671875,233.52232360839844,3
1774627428.7445269,2676.183256,-0.4378339350223541,-0.4378339648246765,0.12086432427167892,0.12086433917284012,233.52684020996094,233.52684020996094,3
1774627428.784534,2676.223263,-0.4358407258987427,-0.43584075570106506,0.11707355827093124,0.11707357317209244,233.5245361328125,233.5245361328125,3
1774627428.824553,2676.263282,-0.45009109377861023,-0.45009109377861023,0.12506012618541718,0.1250600516796112,233.5175018310547,233.5175018310547,3
1774627428.865078,2676.303807,-0.44203123450279236,-0.44203120470046997,0.12306147068738937,0.12306143343448639,233.51858520507812,233.51858520507812,3
1774627428.904406,2676.343135,-0.43833127617836,-0.4383312165737152,0.12265246361494064,0.12265246361494064,233.52032470703125,233.52032470703125,3
1774627428.944416,2676.383145,-0.4361836612224579,-0.4361836612224579,0.12262538075447083,0.12262541055679321,233.52203369140625,233.52203369140625,3
1774627428.984475,2676.423204,-0.43652066588401794,-0.4365205764770508,0.12148284167051315,0.1214827224612236,233.51828002929688,233.5182647705078,3
1774627429.024411,2676.46314,-0.4401213228702545,-0.4401213228702545,0.12083033472299576,0.12083034962415695,233.51560974121094,233.51560974121094,3
1774627429.0646029,2676.503332,-0.4360108971595764,-0.4360109269618988,0.12040840834379196,0.12040840089321136,233.5140380859375,233.5140380859375,3
1774627429.104686,2676.543415,-0.43887603282928467,-0.4388759136199951,0.11990805715322495,0.1199079230427742,233.51361083984375,233.51361083984375,3
1774627429.144618,2676.583347,-0.4377579987049103,-0.4377579987049103,0.12219125032424927,0.12219119817018509,233.5148468017578,233.51483154296875,3
1774627429.184646,2676.623375,-0.43786296248435974,-0.4378628730773926,0.12129002809524536,0.12128990888595581,233.51406860351562,233.51406860351562,3
1774627429.224735,2676.663464,-0.43953076004981995,-0.4395306408405304,0.12102124840021133,0.1210210844874382,233.51181030273438,233.51181030273438,3
1774627429.264906,2676.703635,-0.43948662281036377,-0.439486563205719,0.12121547013521194,0.12121541053056717,233.50991821289062,233.50990295410156,3
1774627429.3044949,2676.743224,-0.44007113575935364,-0.44007110595703125,0.12146414071321487,0.12146420776844025,233.50845336914062,233.50845336914062,3
1774627429.344712,2676.783441,-0.43970516324043274,-0.4397052824497223,0.1218315064907074,0.12183154374361038,233.50833129882812,233.50833129882812,3
1774627429.384559,2676.823288,-0.43955087661743164,-0.4395507872104645,0.12191430479288101,0.12191425263881683,233.50706481933594,233.50706481933594,3
1774627429.424682,2676.863411,-0.44029879570007324,-0.44029876589775085,0.12189663201570511,0.12189659476280212,233.5069122314453,233.50689697265625,3
1774627429.464748,2676.903477,-0.4400849938392639,-0.44008496403694153,0.1218731701374054,0.12187312543392181,233.5047149658203,233.5047149658203,3
1774627429.504655,2676.943384,-0.44072264432907104,-0.44072261452674866,0.12171170860528946,0.1217116266489029,233.50364685058594,233.50363159179688,3
1774627429.544564,2676.983293,-0.4410117268562317,-0.4410117566585541,0.12094925343990326,0.12094926089048386,233.50201416015625,233.50201416015625,3
1774627429.58457,2677.023299,-0.4413415789604187,-0.4413415193557739,0.1204197108745575,0.12041962891817093,233.50082397460938,233.50082397460938,3
1774627429.624775,2677.063504,-0.4413708746433258,-0.44137075543403625,0.11990515142679214,0.11990506947040558,233.4998779296875,233.4998779296875,3
1774627429.664749,2677.103478,-0.4422709047794342,-0.4422709047794342,0.12052935361862183,0.12052936851978302,233.49880981445312,233.49879455566406,3
1774627429.704802,2677.143531,-0.4428212642669678,-0.4428212344646454,0.12077577412128448,0.1207757219672203,233.498291015625,233.49827575683594,3
1774627429.744618,2677.183347,-0.4434438943862915,-0.4434438645839691,0.12076123058795929,0.12076116353273392,233.4973907470703,233.49737548828125,3
1774627429.784561,2677.22329,-0.4435293674468994,-0.443529337644577,0.12140028178691864,0.12140025943517685,233.49627685546875,233.49627685546875,3
1774627429.824832,2677.263561,-0.4437820315361023,-0.44378188252449036,0.1220054179430008,0.12200529128313065,233.494873046875,233.494873046875,3
1774627429.865532,2677.304261,-0.44308528304100037,-0.4430851340293884,0.12251558899879456,0.12251552194356918,233.49288940429688,233.49288940429688,3
1774627429.904792,2677.343521,-0.4426688253879547,-0.44266873598098755,0.12381955981254578,0.12381955981254578,233.4917755126953,233.4917755126953,3
1774627429.944787,2677.383516,-0.4431987702846527,-0.4431987404823303,0.12455929815769196,0.12455924600362778,233.4917755126953,233.49179077148438,3
1774627429.984804,2677.423533,-0.44246190786361694,-0.44246190786361694,0.12438642233610153,0.12438643723726273,233.4910888671875,233.4910888671875,3
1774627430.0250049,2677.463734,-0.44242897629737854,-0.4424287676811218,0.1256427764892578,0.12564264237880707,233.49061584472656,233.4906005859375,3
1774627430.064956,2677.503685,-0.4425130784511566,-0.44251298904418945,0.12707972526550293,0.12707971036434174,233.48959350585938,233.48959350585938,3
1774627430.104703,2677.543432,-0.4424438774585724,-0.4424438178539276,0.1267375946044922,0.12673750519752502,233.48849487304688,233.48846435546875,3
1774627430.1447399,2677.583469,-0.44220927357673645,-0.4422092139720917,0.12784919142723083,0.12784913182258606,233.4876251220703,233.4876251220703,3
1774627430.184738,2677.623467,-0.44188758730888367,-0.44188761711120605,0.1279480755329132,0.1279480755329132,233.48687744140625,233.48687744140625,3
1774627430.225259,2677.663988,-0.44160395860671997,-0.4416038990020752,0.12758967280387878,0.1275896430015564,233.48654174804688,233.48654174804688,3
1774627430.264977,2677.703706,-0.44254255294799805,-0.4425424635410309,0.12740950286388397,0.1274094432592392,233.4852294921875,233.48524475097656,3
1774627430.304568,2677.743297,-0.443440318107605,-0.44344034790992737,0.12742085754871368,0.1274207979440689,233.4838104248047,233.4838104248047,3
1774627430.34455,2677.783279,-0.44440174102783203,-0.44440174102783203,0.12753728032112122,0.12753726541996002,233.4838409423828,233.4838409423828,3
1774627430.384415,2677.823144,-0.4453171491622925,-0.44531702995300293,0.12726753950119019,0.12726742029190063,233.48251342773438,233.48251342773438,3
1774627430.424682,2677.863411,-0.4462684392929077,-0.4462682902812958,0.12764032185077667,0.12764030694961548,233.48248291015625,233.48248291015625,3
1774627430.464655,2677.903384,-0.4464460611343384,-0.4464459717273712,0.12677797675132751,0.12677796185016632,233.48199462890625,233.4819793701172,3
1774627430.504454,2677.943183,-0.447478711605072,-0.44747868180274963,0.12583068013191223,0.12583062052726746,233.4814453125,233.4814453125,3
1774627430.544451,2677.98318,-0.44827309250831604,-0.44827303290367126,0.12544384598731995,0.12544383108615875,233.481201171875,233.48121643066406,3
1774627430.584461,2678.02319,-0.449068546295166,-0.449068546295166,0.12511728703975677,0.1251172125339508,233.48077392578125,233.48074340820312,3
1774627430.624544,2678.063273,-0.4487660229206085,-0.44876596331596375,0.12530098855495453,0.12530100345611572,233.479736328125,233.479736328125,3
1774627430.664622,2678.103351,-0.44895267486572266,-0.44895264506340027,0.12396518886089325,0.12396518141031265,233.47842407226562,233.47842407226562,3
1774627430.704716,2678.143445,-0.44933560490608215,-0.4493354856967926,0.1240706741809845,0.12407057732343674,233.47674560546875,233.47674560546875,3
1774627430.7444909,2678.18322,-0.4495585560798645,-0.4495585560798645,0.12316714227199554,0.12316714227199554,233.4764862060547,233.47650146484375,3
1774627430.7844489,2678.223178,-0.4506372809410095,-0.45063722133636475,0.12271831929683685,0.12271824479103088,233.4762725830078,233.4762725830078,3
1774627430.824413,2678.263142,-0.4515533745288849,-0.4515533745288849,0.12275316566228867,0.1227530762553215,233.47555541992188,233.4755859375,3
1774627430.865119,2678.303848,-0.45215651392936707,-0.45215651392936707,0.12260354310274124,0.12260351330041885,233.47415161132812,233.47415161132812,3
1774627430.904489,2678.343218,-0.45312801003456116,-0.4531278908252716,0.12236856669187546,0.1223684772849083,233.47340393066406,233.47340393066406,3
1774627430.94449,2678.383219,-0.45373839139938354,-0.4537383019924164,0.12267011404037476,0.12266998738050461,233.47195434570312,233.47193908691406,3
1774627430.984461,2678.42319,-0.45481404662132263,-0.45481398701667786,0.12319574505090714,0.12319567799568176,233.47189331054688,233.47189331054688,3
1774627431.024854,2678.463583,-0.45548105239868164,-0.45548105239868164,0.12462354451417923,0.12462351471185684,233.47097778320312,233.47097778320312,3
1774627431.064626,2678.503355,-0.45554253458976746,-0.4555424749851227,0.12526024878025055,0.12526026368141174,233.46942138671875,233.46942138671875,3
1774627431.104318,2678.543047,-0.45645394921302795,-0.45645394921302795,0.12659010291099548,0.1265900433063507,233.46856689453125,233.4685516357422,3
1774627431.144495,2678.583224,-0.4570266604423523,-0.45702654123306274,0.12696292996406555,0.12696294486522675,233.46759033203125,233.46762084960938,3
1774627431.184412,2678.623141,-0.4569935202598572,-0.4569934606552124,0.12671981751918793,0.12671975791454315,233.4664306640625,233.4664306640625,3
1774627431.224575,2678.663304,-0.4573691189289093,-0.4573691785335541,0.1268812119960785,0.1268811821937561,233.46630859375,233.46630859375,3
1774627431.2646449,2678.703374,-0.4581567943096161,-0.4581567943096161,0.12718619406223297,0.12718620896339417,233.4658203125,233.4658203125,3
1774627431.304374,2678.743103,-0.45872044563293457,-0.458720326423645,0.1271040439605713,0.1271040141582489,233.4647216796875,233.4647216796875,3
1774627431.3444269,2678.783156,-0.45956316590309143,-0.45956310629844666,0.1282576322555542,0.12825758755207062,233.4645538330078,233.46453857421875,3
1774627431.384417,2678.823146,-0.46091368794441223,-0.4609135687351227,0.12824690341949463,0.12824681401252747,233.46368408203125,233.46368408203125,3
1774627431.42446,2678.863189,-0.4615797698497772,-0.46157974004745483,0.12769727408885956,0.1276971995830536,233.46316528320312,233.46316528320312,3
1774627431.4645689,2678.903298,-0.4627697169780731,-0.46276968717575073,0.12686759233474731,0.12686754763126373,233.46224975585938,233.46221923828125,3
1774627431.504421,2678.94315,-0.4633123576641083,-0.4633123576641083,0.126283660531044,0.1262836754322052,233.46153259277344,233.4615478515625,3
1774627431.544628,2678.983357,-0.4644412100315094,-0.4644411504268646,0.12616348266601562,0.12616345286369324,233.46084594726562,233.46084594726562,3
1774627431.584311,2679.02304,-0.4644828736782074,-0.46448278427124023,0.12541143596172333,0.12541145086288452,233.46029663085938,233.46029663085938,3
1774627431.624482,2679.063211,-0.4650227427482605,-0.4650226831436157,0.12484240531921387,0.12484240531921387,233.45944213867188,233.45945739746094,3
1774627431.664547,2679.103276,-0.465176522731781,-0.465176522731781,0.124726302921772,0.12472628802061081,233.45921325683594,233.45919799804688,3
1774627431.7045588,2679.143288,-0.46496301889419556,-0.46496301889419556,0.12398187071084976,0.12398189306259155,233.4588165283203,233.4588165283203,3
1774627431.744366,2679.183095,-0.4655956029891968,-0.4655956029891968,0.12340544909238815,0.12340539693832397,233.4569854736328,233.4569854736328,3
1774627431.7843258,2679.223055,-0.4661919176578522,-0.46619197726249695,0.12325241416692734,0.12325231730937958,233.456787109375,233.456787109375,3
1774627431.824437,2679.263166,-0.4663209915161133,-0.46632105112075806,0.12231496721506119,0.12231496721506119,233.456298828125,233.456298828125,3
1774627431.865226,2679.303955,-0.4664718508720398,-0.46647173166275024,0.12160942703485489,0.12160937488079071,233.4551544189453,233.45516967773438,3
1774627431.904582,2679.343311,-0.4664101004600525,-0.4664100110530853,0.12161527574062347,0.12161524593830109,233.45391845703125,233.45391845703125,3
1774627431.944687,2679.383416,-0.466279000043869,-0.46627891063690186,0.12188073247671127,0.12188075482845306,233.45413208007812,233.45413208007812,3
1774627431.9845889,2679.423318,-0.4664500951766968,-0.46644991636276245,0.12228666990995407,0.12228656560182571,233.45301818847656,233.45301818847656,3
1774627432.024674,2679.463403,-0.466414213180542,-0.466414213180542,0.12223318964242935,0.12223321944475174,233.45260620117188,233.45260620117188,3
1774627432.0647678,2679.503497,-0.46684765815734863,-0.46684762835502625,0.12235984206199646,0.12235985696315765,233.45175170898438,233.45176696777344,3
1774627432.104825,2679.543554,-0.4673543870449066,-0.46735426783561707,0.12217088043689728,0.1221708282828331,233.45196533203125,233.45196533203125,3
1774627432.144553,2679.583282,-0.4682569205760956,-0.4682568907737732,0.12256592512130737,0.12256580591201782,233.4514923095703,233.4514923095703,3
1774627432.184509,2679.623238,-0.46753913164138794,-0.4675390124320984,0.1220613569021225,0.12206132709980011,233.45037841796875,233.45037841796875,3
1774627432.224719,2679.663448,-0.4679792523384094,-0.4679790735244751,0.12230685353279114,0.12230673432350159,233.45030212402344,233.45030212402344,3
1774627432.26471,2679.703439,-0.4671702980995178,-0.46717023849487305,0.12190841138362885,0.12190832942724228,233.44839477539062,233.44839477539062,3
1774627432.304591,2679.74332,-0.4674018919467926,-0.46740177273750305,0.12279319018125534,0.12279316037893295,233.44642639160156,233.44642639160156,3
1774627432.3445609,2679.78329,-0.4679660201072693,-0.4679660201072693,0.12309818714857101,0.1230982095003128,233.44436645507812,233.44436645507812,3
1774627432.38457,2679.823299,-0.4683682322502136,-0.4683682918548584,0.12331521511077881,0.12331521511077881,233.44363403320312,233.44363403320312,3
1774627432.42465,2679.863379,-0.47030240297317505,-0.47030240297317505,0.12351086735725403,0.12351090461015701,233.44345092773438,233.44345092773438,3
1774627432.464707,2679.903436,-0.4693818986415863,-0.46938198804855347,0.12274844199419022,0.12274840474128723,233.44317626953125,233.44317626953125,3
1774627432.504456,2679.943185,-0.46963706612586975,-0.4696369469165802,0.1240791603922844,0.12407907843589783,233.4418182373047,233.4418182373047,3
1774627432.5444899,2679.983219,-0.47020167112350464,-0.47020161151885986,0.12434949725866318,0.124349445104599,233.44064331054688,233.44064331054688,3
1774627432.58449,2680.023219,-0.4702872633934021,-0.47028714418411255,0.12441318482160568,0.1244131401181221,233.43984985351562,233.43984985351562,3
1774627432.624713,2680.063442,-0.47072258591651917,-0.47072258591651917,0.12485335767269135,0.12485329061746597,233.43997192382812,233.43997192382812,3
1774627432.664661,2680.10339,-0.47098687291145325,-0.47098681330680847,0.12590549886226654,0.1259053498506546,233.43907165527344,233.43905639648438,3
1774627432.704921,2680.14365,-0.47094184160232544,-0.4709419310092926,0.12631802260875702,0.12631799280643463,233.43954467773438,233.43954467773438,3
1774627432.744686,2680.183415,-0.4702043831348419,-0.47020429372787476,0.1271301507949829,0.12713012099266052,233.43856811523438,233.43856811523438,3
1774627432.7844698,2680.223199,-0.4700790047645569,-0.4700790345668793,0.12698622047901154,0.12698617577552795,233.4375,233.4375,3
1774627432.824759,2680.263488,-0.4691394567489624,-0.4691394567489624,0.1264648288488388,0.1264648586511612,233.4363555908203,233.4363555908203,3
1774627432.864745,2680.303474,-0.46957293152809143,-0.46957287192344666,0.12515868246555328,0.1251586675643921,233.4358673095703,233.4358673095703,3
1774627432.904567,2680.343296,-0.46993178129196167,-0.46993178129196167,0.125881627202034,0.125881627202034,233.43539428710938,233.43539428710938,3
1774627432.944551,2680.38328,-0.4694225490093231,-0.4694225490093231,0.12578585743904114,0.12578584253787994,233.43511962890625,233.43511962890625,3
1774627432.984484,2680.423213,-0.47052502632141113,-0.47052493691444397,0.12569288909435272,0.12569281458854675,233.43479919433594,233.43479919433594,3
1774627433.024564,2680.463293,-0.4701290428638458,-0.4701291024684906,0.12558864057064056,0.1255885809659958,233.43490600585938,233.4348907470703,3
1774627433.06448,2680.503209,-0.470126211643219,-0.470126211643219,0.12604732811450958,0.12604732811450958,233.43304443359375,233.43304443359375,3
1774627433.104235,2680.542964,-0.4710385203361511,-0.4710385203361511,0.12598679959774017,0.12598676979541779,233.4324951171875,233.4324951171875,3
1774627433.1442668,2680.582996,-0.4713773727416992,-0.47137731313705444,0.12496393173933029,0.12496389448642731,233.43161010742188,233.43161010742188,3
1774627433.1842558,2680.622985,-0.4715041518211365,-0.4715040326118469,0.12461316585540771,0.12461312860250473,233.43177795410156,233.43179321289062,3
1774627433.2243629,2680.663092,-0.4710702896118164,-0.4710702896118164,0.12465565651655197,0.12465562671422958,233.43228149414062,233.4322967529297,3
1774627433.264418,2680.703147,-0.4718517065048218,-0.471851646900177,0.12446821480989456,0.12446818500757217,233.4308624267578,233.43087768554688,3
1774627433.304303,2680.743032,-0.4722265601158142,-0.47222650051116943,0.12488063424825668,0.1248805969953537,233.4303436279297,233.4303436279297,3
1774627433.3443,2680.783029,-0.4728674292564392,-0.4728674590587616,0.1258753091096878,0.125875324010849,233.43064880371094,233.43064880371094,3
1774627433.384382,2680.823111,-0.472954660654068,-0.4729546010494232,0.12640219926834106,0.1264021396636963,233.43008422851562,233.43008422851562,3
1774627433.424561,2680.86329,-0.47324520349502563,-0.47324520349502563,0.12689538300037384,0.12689533829689026,233.4293212890625,233.42933654785156,3
1774627433.464588,2680.903317,-0.4734463691711426,-0.4734462797641754,0.1276623010635376,0.12766225636005402,233.42849731445312,233.42849731445312,3
1774627433.50442,2680.943149,-0.47339850664138794,-0.47339847683906555,0.12725022435188293,0.12725014984607697,233.42788696289062,233.42788696289062,3
1774627433.5443969,2680.983126,-0.4731485843658447,-0.4731484055519104,0.1277930736541748,0.12779299914836884,233.4279022216797,233.42788696289062,3
1774627433.584414,2681.023143,-0.47320643067359924,-0.4732063114643097,0.1279134452342987,0.12791337072849274,233.42767333984375,233.42764282226562,3
1774627433.624635,2681.063364,-0.4719616770744324,-0.4719615578651428,0.12869413197040558,0.1286940574645996,233.4261474609375,233.4261474609375,3
1774627433.664372,2681.103101,-0.47250333428382874,-0.47250333428382874,0.1293521225452423,0.12935210764408112,233.42532348632812,233.42535400390625,3
1774627433.704534,2681.143263,-0.4719000458717346,-0.4719001054763794,0.12924692034721375,0.12924693524837494,233.42471313476562,233.4247283935547,3
1774627433.744256,2681.182985,-0.47190675139427185,-0.47190675139427185,0.12906232476234436,0.12906232476234436,233.42462158203125,233.4246368408203,3
1774627433.78426,2681.222989,-0.47165122628211975,-0.47165122628211975,0.12867674231529236,0.12867668271064758,233.42391967773438,233.42391967773438,3
1774627433.824286,2681.263015,-0.4718847870826721,-0.47188493609428406,0.12844637036323547,0.12844638526439667,233.42369079589844,233.42367553710938,3
1774627433.864197,2681.302926,-0.471874475479126,-0.47187453508377075,0.12758097052574158,0.12758097052574158,233.423095703125,233.423095703125,3
1774627433.903943,2681.342672,-0.47146669030189514,-0.47146663069725037,0.12717856466770172,0.12717857956886292,233.42263793945312,233.42263793945312,3
1774627433.944134,2681.382863,-0.4718655049800873,-0.4718654751777649,0.12710514664649963,0.12710513174533844,233.42129516601562,233.42129516601562,3
1774627433.9840689,2681.422798,-0.47218450903892517,-0.4721843898296356,0.12636934220790863,0.12636934220790863,233.42120361328125,233.42120361328125,3
1774627434.024205,2681.462934,-0.47352632880210876,-0.47352632880210876,0.12583959102630615,0.12583951652050018,233.42086791992188,233.42086791992188,3
1774627434.064308,2681.503037,-0.4739745557308197,-0.4739746153354645,0.12629233300685883,0.1262923628091812,233.42042541503906,233.42042541503906,3
1774627434.104173,2681.542902,-0.47490882873535156,-0.4749089479446411,0.12614673376083374,0.12614674866199493,233.42007446289062,233.42007446289062,3
1774627434.144147,2681.582876,-0.47477421164512634,-0.47477415204048157,0.12627078592777252,0.12627075612545013,233.41909790039062,233.4190673828125,3
1774627434.184079,2681.622808,-0.47514283657073975,-0.47514283657073975,0.12552760541439056,0.12552759051322937,233.41976928710938,233.41976928710938,3
1774627434.2238889,2681.662618,-0.47567248344421387,-0.47567248344421387,0.12485707551240921,0.12485706806182861,233.42042541503906,233.42042541503906,3
1774627434.264097,2681.702826,-0.47530031204223633,-0.47530025243759155,0.12508916854858398,0.12508909404277802,233.42010498046875,233.42010498046875,3
1774627434.3039598,2681.742689,-0.47593560814857483,-0.47593554854393005,0.1243230402469635,0.12432296574115753,233.41990661621094,233.41990661621094,3
1774627434.3439689,2681.782698,-0.47647348046302795,-0.4764733910560608,0.12370838969945908,0.12370826303958893,233.41993713378906,233.41993713378906,3
1774627434.383915,2681.822644,-0.4774821698665619,-0.4774821102619171,0.12378604710102081,0.12378598004579544,233.41970825195312,233.41970825195312,3
1774627434.423899,2681.862628,-0.4747520089149475,-0.4747520685195923,0.1227509006857872,0.12275087088346481,233.4205780029297,233.4205780029297,3
1774627434.464118,2681.902847,-0.47722145915031433,-0.47722145915031433,0.12382113188505173,0.12382110208272934,233.42242431640625,233.4224395751953,3
1774627434.503883,2681.942612,-0.4779389500617981,-0.47793883085250854,0.12146702408790588,0.12146700918674469,233.417236328125,233.417236328125,3
1774627434.543963,2681.982692,-0.4792359173297882,-0.4792359173297882,0.12125540524721146,0.12125540524721146,233.41552734375,233.41552734375,3
1774627434.583893,2682.022622,-0.4810858964920044,-0.4810858368873596,0.1224418357014656,0.12244177609682083,233.4169921875,233.4169921875,3
1774627434.623888,2682.062617,-0.4876812994480133,-0.48768123984336853,0.12232614308595657,0.12232613563537598,233.41461181640625,233.41464233398438,3
1774627434.664064,2682.102793,-0.48732537031173706,-0.48732537031173706,0.12311182916164398,0.12311176210641861,233.41390991210938,233.41392517089844,3
1774627434.703906,2682.142635,-0.48548778891563416,-0.48548778891563416,0.12368902564048767,0.12368899583816528,233.41384887695312,233.41384887695312,3
1774627434.743856,2682.182585,-0.4818984270095825,-0.48189836740493774,0.12336421757936478,0.12336422502994537,233.41432189941406,233.41432189941406,3
1774627434.78402,2682.222749,-0.478055477142334,-0.47805532813072205,0.12334047257900238,0.1233404129743576,233.41647338867188,233.41647338867188,3
1774627434.823958,2682.262687,-0.47527170181274414,-0.47527164220809937,0.12032726407051086,0.12032721936702728,233.41708374023438,233.4170684814453,3
1774627434.864378,2682.303107,-0.47856634855270386,-0.4785662889480591,0.12135981023311615,0.12135971337556839,233.41390991210938,233.4138946533203,3
1774627434.9038599,2682.342589,-0.4861798882484436,-0.4861798882484436,0.12402315437793732,0.12402306497097015,233.40939331054688,233.40939331054688,3
1774627434.943868,2682.382597,-0.4828220009803772,-0.4828219413757324,0.12551724910736084,0.12551717460155487,233.4087371826172,233.40872192382812,3
1774627434.9838479,2682.422577,-0.47643640637397766,-0.47643646597862244,0.1245318278670311,0.12453185766935349,233.41256713867188,233.41253662109375,3
1774627435.023905,2682.462634,-0.4728032648563385,-0.4728032350540161,0.12297823280096054,0.12297821789979935,233.41455078125,233.41455078125,3
1774627435.06404,2682.502769,-0.47555872797966003,-0.4755586087703705,0.12249106168746948,0.12249097973108292,233.41212463378906,233.41212463378906,3
1774627435.103822,2682.542551,-0.47863301634788513,-0.4786330461502075,0.1245417669415474,0.12454172968864441,233.4090576171875,233.4090576171875,3
1774627435.143878,2682.582607,-0.4800659418106079,-0.4800660014152527,0.1268092840909958,0.126809224486351,233.4072723388672,233.40728759765625,3
1774627435.183775,2682.622504,-0.4744320213794708,-0.4744319021701813,0.12531059980392456,0.12531046569347382,233.4088134765625,233.4088134765625,3
1774627435.223839,2682.662568,-0.46840405464172363,-0.46840405464172363,0.12615340948104858,0.12615342438220978,233.41162109375,233.41162109375,3
1774627435.26404,2682.702769,-0.46878722310066223,-0.46878719329833984,0.12438040971755981,0.12438037991523743,233.41122436523438,233.41122436523438,3
1774627435.303907,2682.742636,-0.46984025835990906,-0.46984025835990906,0.12527211010456085,0.12527209520339966,233.4080810546875,233.4080810546875,3
1774627435.343814,2682.782543,-0.47642940282821655,-0.4764293134212494,0.12626425921916962,0.12626422941684723,233.40576171875,233.40576171875,3
1774627435.383867,2682.822596,-0.4727237820625305,-0.47272372245788574,0.12690557539463043,0.12690551578998566,233.4042510986328,233.4042510986328,3
1774627435.423846,2682.862575,-0.4683249294757843,-0.4683249592781067,0.12744365632534027,0.12744368612766266,233.4055938720703,233.4055938720703,3
1774627435.464199,2682.902928,-0.46548861265182495,-0.46548858284950256,0.12654326856136322,0.12654325366020203,233.40774536132812,233.40771484375,3
1774627435.5041049,2682.942834,-0.464979887008667,-0.464979887008667,0.12711063027381897,0.1271105706691742,233.4060821533203,233.4060821533203,3
1774627435.544048,2682.982777,-0.4715437591075897,-0.4715437889099121,0.12706370651721954,0.12706366181373596,233.40304565429688,233.40304565429688,3
1774627435.584001,2683.02273,-0.4723624587059021,-0.4723623991012573,0.1285819411277771,0.12858188152313232,233.40084838867188,233.40084838867188,3
1774627435.624202,2683.062931,-0.4657983183860779,-0.4657982885837555,0.12935543060302734,0.12935538589954376,233.4029998779297,233.4029998779297,3
1774627435.664204,2683.102933,-0.46394798159599304,-0.46394798159599304,0.12944065034389496,0.129440575838089,233.40504455566406,233.40504455566406,3
1774627435.704043,2683.142772,-0.4655536115169525,-0.46555355191230774,0.1279507726430893,0.12795065343379974,233.40347290039062,233.40347290039062,3
1774627435.744087,2683.182816,-0.46662968397140503,-0.46662968397140503,0.1271444857120514,0.1271444857120514,233.40103149414062,233.40103149414062,3
1774627435.783997,2683.222726,-0.46804967522621155,-0.4680496156215668,0.13112880289554596,0.13112877309322357,233.3980712890625,233.3980712890625,3
1774627435.824032,2683.262761,-0.4698207378387451,-0.4698207378387451,0.13091498613357544,0.13091498613357544,233.39622497558594,233.39622497558594,3
1774627435.864301,2683.30303,-0.46520987153053284,-0.46520987153053284,0.1303311139345169,0.1303310990333557,233.39999389648438,233.39999389648438,3
1774627435.904016,2683.342745,-0.46417924761772156,-0.4641793668270111,0.13084706664085388,0.1308470219373703,233.40077209472656,233.40077209472656,3
1774627435.9437149,2683.382444,-0.46439239382743835,-0.4643923342227936,0.12881222367286682,0.12881223857402802,233.3992156982422,233.39923095703125,3
1774627435.983829,2683.422558,-0.46906375885009766,-0.46906375885009766,0.12872718274593353,0.12872713804244995,233.39712524414062,233.39712524414062,3
1774627436.023817,2683.462546,-0.47054776549339294,-0.4705476462841034,0.12935467064380646,0.1293545961380005,233.39474487304688,233.39474487304688,3
1774627436.063878,2683.502607,-0.4660303592681885,-0.46603038907051086,0.12836815416812897,0.12836818397045135,233.39532470703125,233.39532470703125,3
1774627436.10375,2683.542479,-0.46259140968322754,-0.46259135007858276,0.12780317664146423,0.12780308723449707,233.39923095703125,233.39926147460938,3
1774627436.1437929,2683.582522,-0.4634900391101837,-0.46349000930786133,0.1256246417760849,0.1256246268749237,233.39703369140625,233.39703369140625,3
1774627436.183979,2683.622708,-0.4668528437614441,-0.4668527841567993,0.12472415715456009,0.1247241422533989,233.39566040039062,233.3956756591797,3
1774627436.224139,2683.662868,-0.4705796241760254,-0.4705796241760254,0.12727388739585876,0.127273827791214,233.39169311523438,233.39169311523438,3
1774627436.264221,2683.70295,-0.47280243039131165,-0.47280243039131165,0.12586474418640137,0.1258646547794342,233.3917236328125,233.3917236328125,3
1774627436.303976,2683.742705,-0.466452956199646,-0.4664528965950012,0.1259506195783615,0.1259506195783615,233.39340209960938,233.39340209960938,3
1774627436.344038,2683.782767,-0.4651903510093689,-0.46519044041633606,0.12269341945648193,0.12269344180822372,233.39511108398438,233.39511108398438,3
1774627436.383987,2683.822716,-0.46514371037483215,-0.4651436507701874,0.12175223976373672,0.12175215780735016,233.3946075439453,233.39462280273438,3
1774627436.424054,2683.862783,-0.4710271656513214,-0.4710271656513214,0.12225917726755142,0.12225912511348724,233.38973999023438,233.38973999023438,3
1774627436.463953,2683.902682,-0.4743708670139313,-0.4743708670139313,0.1232886016368866,0.12328851968050003,233.3878631591797,233.38784790039062,3
1774627436.503787,2683.942516,-0.4702816605567932,-0.47028160095214844,0.12180538475513458,0.1218053326010704,233.38894653320312,233.38894653320312,3
1774627436.543695,2683.982424,-0.46742013096809387,-0.4674200117588043,0.12166332453489304,0.12166329473257065,233.39007568359375,233.3900909423828,3
1774627436.5836968,2684.022426,-0.4683723449707031,-0.4683723449707031,0.11806309223175049,0.11806310713291168,233.39218139648438,233.39218139648438,3
1774627436.623683,2684.062412,-0.47202032804489136,-0.4720202684402466,0.11743909120559692,0.11743898689746857,233.38919067382812,233.38919067382812,3
1774627436.663845,2684.102574,-0.4743664264678955,-0.4743664860725403,0.1192968413233757,0.11929686367511749,233.3862762451172,233.3862762451172,3
1774627436.703934,2684.142663,-0.4727535843849182,-0.4727535545825958,0.118915855884552,0.11891581118106842,233.384033203125,233.384033203125,3
1774627436.743995,2684.182724,-0.4687952995300293,-0.4687952399253845,0.11803342401981354,0.11803341656923294,233.3865966796875,233.3865966796875,3
1774627436.783905,2684.222634,-0.4699859321117401,-0.46998587250709534,0.11715400218963623,0.11715392023324966,233.3876953125,233.3876953125,3
1774627436.824107,2684.262836,-0.47139811515808105,-0.47139811515808105,0.11497665196657181,0.1149766743183136,233.38650512695312,233.38650512695312,3
1774627436.864241,2684.30297,-0.47419747710227966,-0.4741973876953125,0.11590325832366943,0.11590325832366943,233.38385009765625,233.38385009765625,3
1774627436.9039218,2684.342651,-0.4784451127052307,-0.4784451127052307,0.1149178072810173,0.11491777747869492,233.38096618652344,233.38096618652344,3
1774627436.943917,2684.382646,-0.473688006401062,-0.4736880660057068,0.11261680722236633,0.11261679232120514,233.3814697265625,233.3814697265625,3
1774627436.983746,2684.422475,-0.47341036796569824,-0.47341036796569824,0.11323164403438568,0.1132315918803215,233.38351440429688,233.38351440429688,3
1774627437.023615,2684.462344,-0.4730595648288727,-0.4730595052242279,0.1109297052025795,0.11092963069677353,233.38339233398438,233.38339233398438,3
1774627437.063792,2684.502521,-0.4757806658744812,-0.4757806062698364,0.11072707176208496,0.11072699725627899,233.37985229492188,233.37985229492188,3
1774627437.103641,2684.54237,-0.4801591634750366,-0.4801591634750366,0.1104886531829834,0.11048857867717743,233.3790283203125,233.3790283203125,3
1774627437.143617,2684.582346,-0.4780197739601135,-0.47801971435546875,0.11134897172451019,0.1113489493727684,233.37649536132812,233.37649536132812,3
1774627437.183666,2684.622395,-0.4761795699596405,-0.4761795699596405,0.11126077175140381,0.11126072704792023,233.37652587890625,233.37652587890625,3
1774627437.223718,2684.662447,-0.4740210771560669,-0.47402095794677734,0.11011575162410736,0.1101156696677208,233.37945556640625,233.3794708251953,3
1774627437.2638168,2684.702546,-0.4743785858154297,-0.4743785858154297,0.10898014158010483,0.10898012667894363,233.3784637451172,233.3784637451172,3
1774627437.303957,2684.742686,-0.47716543078422546,-0.4771653115749359,0.10871102660894394,0.10871089994907379,233.3771209716797,233.3771209716797,3
1774627437.343937,2684.782666,-0.48053738474845886,-0.48053744435310364,0.11072206497192383,0.11072203516960144,233.37490844726562,233.37490844726562,3
1774627437.3838959,2684.822625,-0.4773860275745392,-0.4773860275745392,0.11085585504770279,0.11085588485002518,233.3746795654297,233.3746795654297,3
1774627437.423802,2684.862531,-0.4748534560203552,-0.474853515625,0.110454261302948,0.11045420169830322,233.376953125,233.37698364257812,3
1774627437.464113,2684.902842,-0.4738999009132385,-0.4738999605178833,0.1107262521982193,0.11072617024183273,233.376708984375,233.376708984375,3
1774627437.503843,2684.942572,-0.47382113337516785,-0.47382113337516785,0.11022539436817169,0.11022527515888214,233.37469482421875,233.37469482421875,3
1774627437.543601,2684.98233,-0.4788903594017029,-0.4788902699947357,0.11184483021497726,0.11184477806091309,233.37197875976562,233.37197875976562,3
1774627437.5835888,2685.022318,-0.47991302609443665,-0.47991296648979187,0.11276648193597794,0.11276645958423615,233.37100219726562,233.37100219726562,3
1774627437.623561,2685.06229,-0.47683537006378174,-0.47683537006378174,0.11482134461402893,0.11482132971286774,233.37066650390625,233.37066650390625,3
1774627437.663775,2685.102504,-0.47481459379196167,-0.4748145639896393,0.1145339384675026,0.11453388631343842,233.37228393554688,233.37228393554688,3
1774627437.703772,2685.142501,-0.47607430815696716,-0.4760742485523224,0.11084182560443878,0.1108417883515358,233.37220764160156,233.37220764160156,3
1774627437.743655,2685.182384,-0.4797820746898651,-0.4797821342945099,0.11210034042596817,0.1121002733707428,233.36953735351562,233.36953735351562,3
1774627437.783572,2685.222301,-0.4817572832107544,-0.48175716400146484,0.11409494280815125,0.11409489065408707,233.3671417236328,233.3671417236328,3
1774627437.823945,2685.262674,-0.4799017608165741,-0.47990182042121887,0.11386188864707947,0.11386197060346603,233.36691284179688,233.36691284179688,3
1774627437.86408,2685.302809,-0.4392275810241699,-0.47528520226478577,0.10077601671218872,0.11268164962530136,233.36605834960938,233.3692626953125,3
1774627437.903748,2685.342477,-0.35900160670280457,-0.47255969047546387,0.08236930519342422,0.11108952015638351,233.36094665527344,233.37045288085938,3
1774627437.943847,2685.382576,-0.29344257712364197,-0.48567259311676025,0.06732763350009918,0.10964012145996094,233.35659790039062,233.3677520751953,3
1774627437.983718,2685.422447,-0.23985067009925842,-0.4606783092021942,0.055031657218933105,0.11664945632219315,233.35292053222656,233.37811279296875,3
1774627438.023957,2685.462686,-0.1960463970899582,-0.5061966776847839,0.04498123750090599,0.13286104798316956,233.3497772216797,233.37466430664062,3
1774627438.063967,2685.502696,-0.1602356731891632,-0.4571526348590851,0.03676478937268257,0.10764851421117783,233.34706115722656,233.34934997558594,3
1774627438.103832,2685.542561,-0.13097761571407318,-0.49561092257499695,0.030051786452531815,0.10306944698095322,233.34475708007812,233.34048461914062,3
1774627438.1435308,2685.58226,-0.1070559173822403,-0.4742678105831146,0.02456316351890564,0.11557117104530334,233.34280395507812,233.3536376953125,3
1774627438.183584,2685.622313,-0.08750413358211517,-0.4263889491558075,0.020077170804142952,0.11680590361356735,233.3411407470703,233.35487365722656,3
1774627438.223633,2685.662362,-0.07152095437049866,-0.4014497995376587,0.016409967094659805,0.10449247807264328,233.33973693847656,233.37106323242188,3
1774627438.26369,2685.702419,-0.05846136808395386,-0.4340132176876068,0.01341354288160801,0.0984082892537117,233.33853149414062,233.39315795898438,3
1774627438.303551,2685.74228,-0.047782786190509796,-0.46321597695350647,0.01096342969685793,0.11317122727632523,233.3375244140625,233.38177490234375,3
1774627438.343869,2685.782598,-0.03905734419822693,-0.5003904104232788,0.008961440995335579,0.10653986781835556,233.33663940429688,233.38009643554688,3
1774627438.383581,2685.82231,-0.031924404203891754,-0.5171522498130798,0.007324840407818556,0.11083624511957169,233.33590698242188,233.36892700195312,3
1774627438.423549,2685.862278,-0.026092546060681343,-0.5274321436882019,0.005986761301755905,0.11143974214792252,233.33526611328125,233.36090087890625,3
1774627438.463733,2685.902462,-0.021328413859009743,-0.5167111754417419,0.004893662873655558,0.12145768851041794,233.33474731445312,233.3431396484375,3
1774627438.503519,2685.942248,-0.01743300072848797,-0.49384650588035583,0.003999887499958277,0.10808204859495163,233.33428955078125,233.3458251953125,3
1774627438.543505,2685.982234,-0.01424897089600563,-0.4531172215938568,0.0032693345565348864,0.12200853228569031,233.33389282226562,233.3492431640625,3
1774627438.58354,2686.022269,-0.011646836064755917,-0.41939812898635864,0.0026722911279648542,0.10963732749223709,233.33355712890625,233.359130859375,3
1774627438.62352,2686.062249,-0.009519853629171848,-0.41698116064071655,0.0021842678543180227,0.10540491342544556,233.33328247070312,233.38223266601562,3
1774627438.663693,2686.102422,-0.007781189866364002,-0.4339176118373871,0.0017853444442152977,0.10899407416582108,233.33303833007812,233.3873291015625,3
1774627438.703472,2686.142201,-0.006360132712870836,-0.46878182888031006,0.0014592920197173953,0.09791704267263412,233.33285522460938,233.39541625976562,3
1774627438.743489,2686.182218,-0.005198547150939703,-0.48571616411209106,0.0011927734594792128,0.09899266809225082,233.33267211914062,233.386962890625,3
1774627438.78349,2686.222219,-0.004249039106070995,-0.5171909928321838,0.0009749294258654118,0.10452191531658173,233.31089782714844,233.38961791992188,3
1774627438.823545,2686.262274,-0.003473087912425399,-0.5341693758964539,0.0007969597354531288,0.11358122527599335,233.18179321289062,233.36305236816406,3
1774627438.863719,2686.302448,-0.0028387659694999456,-0.5274550318717957,0.0006515245768241584,0.10355216264724731,232.9077911376953,233.3602294921875,3
1774627438.903499,2686.342228,-0.002320239320397377,-0.4861065745353699,0.0005326636601239443,0.10602781176567078,232.50439453125,233.35739135742188,3
1774627438.943477,2686.382206,-0.0018964492483064532,-0.4564269483089447,0.00043552223360165954,0.09171527624130249,231.9998016357422,233.369384765625,3
1774627438.983736,2686.422465,-0.0015501149464398623,-0.40987712144851685,0.00035612634383141994,0.10408540815114975,231.41883850097656,233.37791442871094,3
1774627439.023808,2686.462537,-0.4142916202545166,-0.414291650056839,0.0943153128027916,0.09431532770395279,233.39498901367188,233.39498901367188,3
1774627439.063853,2686.502582,-0.4418499171733856,-0.4418499171733856,0.1088104173541069,0.10881035774946213,233.3856658935547,233.3856658935547,3
1774627439.103695,2686.542424,-0.4639541208744049,-0.4639541208744049,0.10592695325613022,0.10592695325613022,233.3868408203125,233.3868408203125,3
1774627439.143707,2686.582436,-0.4631328582763672,-0.4631327986717224,0.10678970068693161,0.10678967088460922,233.39031982421875,233.39031982421875,3
1774627439.183425,2686.622154,-0.4277597963809967,-0.4776167869567871,0.10248921066522598,0.09392492473125458,233.40097045898438,233.39938354492188,3
1774627439.223528,2686.662257,-0.34963884949684143,-0.46894076466560364,0.08376552164554596,0.09047050029039383,233.51608276367188,233.40707397460938,3
1774627439.263665,2686.702394,-0.28577038645744324,-0.46342942118644714,0.06845328956842422,0.09847202897071838,233.75753784179688,233.3946533203125,3
1774627439.303498,2686.742227,-0.23359456658363342,-0.4662835896015167,0.055942051112651825,0.12185972929000854,234.11708068847656,233.38485717773438,3
1774627439.3435159,2686.782245,-0.19093702733516693,-0.46612709760665894,0.045712023973464966,0.10506509244441986,234.59622192382812,233.39529418945312,3
1774627439.383436,2686.822165,-0.1560669094324112,-0.45815128087997437,0.03734906390309334,0.08791311830282211,235.1987762451172,233.40676879882812,3
1774627439.4234118,2686.862141,-0.12756554782390594,-0.461241215467453,0.030513914301991463,0.11569284647703171,235.9168701171875,233.40621948242188,3
1774627439.463656,2686.902385,-0.10427429527044296,-0.48971158266067505,0.024929236620664597,0.11611101031303406,236.73727416992188,233.4019775390625,3
1774627439.503401,2686.94213,-0.08523182570934296,-0.4736560881137848,0.02036529779434204,0.09496204555034637,237.59173583984375,233.39974975585938,3
1774627439.543658,2686.982387,-0.06966595351696014,-0.4736090302467346,0.01663755625486374,0.10875919461250305,238.36399841308594,233.3775177001953,3
1774627439.583694,2687.022423,-0.056946106255054474,-0.47893133759498596,0.013593991287052631,0.11040682345628738,239.01806640625,233.39236450195312,3
1774627439.6238348,2687.062564,-0.046546533703804016,-0.44032910466194153,0.011107907630503178,0.1053658276796341,239.50442504882812,233.41046142578125,3
1774627439.663789,2687.102518,-0.038046181201934814,-0.41583654284477234,0.009077993221580982,0.11811644583940506,239.737060546875,233.4076690673828,3
1774627439.70366,2687.142389,-0.031097546219825745,-0.4489627182483673,0.007420245558023453,0.1180453673005104,239.69061279296875,233.41305541992188,3
1774627439.743707,2687.182436,-0.02541784569621086,-0.4839223325252533,0.006066380999982357,0.09642801433801651,239.34335327148438,233.41641235351562,3
1774627439.7836149,2687.222344,-0.020775485783815384,-0.49127545952796936,0.00496051786467433,0.1106119304895401,238.693603515625,233.40225219726562,3
1774627439.823672,2687.262401,-0.016980597749352455,-0.5079335570335388,0.00405686441808939,0.10715319216251373,237.77267456054688,233.3988037109375,3
1774627439.863963,2687.302692,-0.013878775760531425,-0.49662333726882935,0.0033182804472744465,0.10237660259008408,236.63040161132812,233.37533569335938,3
1774627439.9035509,2687.34228,-0.01134343259036541,-0.4785614013671875,0.002714447444304824,0.10646621882915497,235.31024169921875,233.3765869140625,3
1774627439.9436278,2687.382357,-0.009271478280425072,-0.441667765378952,0.0022207479923963547,0.08861300349235535,233.85400390625,233.40664672851562,3
1774627439.9835958,2687.422325,-0.007577679120004177,-0.3895390033721924,0.0018168981187045574,0.11454330384731293,232.286376953125,233.40640258789062,3
1774627440.024134,2687.462863,-0.006193488836288452,-0.4145830273628235,0.001486614695750177,0.11382056027650833,230.6310272216797,233.42593383789062,3
1774627440.063941,2687.50267,-0.005062051583081484,-0.4480566084384918,0.0012164065847173333,0.11073154956102371,228.90185546875,233.42160034179688,3
1774627440.1037939,2687.542523,-0.46232444047927856,-0.46232444047927856,0.09753338992595673,0.09753337502479553,233.42550659179688,233.42550659179688,3
1774627440.143723,2687.582452,-0.4738662838935852,-0.4738662838935852,0.09920933097600937,0.0992092490196228,233.4207763671875,233.4207763671875,3
1774627440.183789,2687.622518,-0.4823664426803589,-0.4823663532733917,0.10377971827983856,0.10377959161996841,233.40899658203125,233.40899658203125,3
1774627440.224364,2687.663093,-0.4594058096408844,-0.45940569043159485,0.11826565116643906,0.11826558411121368,233.39956665039062,233.39956665039062,3
1774627440.263996,2687.702725,-0.4574694037437439,-0.45746946334838867,0.11887268722057343,0.11887270212173462,233.39779663085938,233.39779663085938,3
1774627440.303865,2687.742594,-0.446895956993103,-0.44689586758613586,0.1133684366941452,0.11336837708950043,233.39859008789062,233.39857482910156,3
1774627440.343593,2687.782322,-0.44009602069854736,-0.440095990896225,0.11044594645500183,0.11044595390558243,233.40248107910156,233.40249633789062,3
1774627440.383532,2687.822261,-0.3572733700275421,-0.4383660852909088,0.09497247636318207,0.10746199637651443,233.4461669921875,233.4071502685547,3
1774627440.423892,2687.862621,-0.29202309250831604,-0.4449749290943146,0.07761318981647491,0.11268609762191772,233.75021362304688,233.4002685546875,3
1774627440.463971,2687.9027,-0.23869794607162476,-0.4773107171058655,0.06342001259326935,0.10953556001186371,234.2943115234375,233.42169189453125,3
1774627440.503684,2687.942413,-0.19511093199253082,-0.4503800868988037,0.05181590095162392,0.09474003314971924,235.05335998535156,233.41973876953125,3
1774627440.543673,2687.982402,-0.15948329865932465,-0.41769975423812866,0.04233119264245033,0.12046129256486893,235.9651641845703,233.4088134765625,3
1774627440.583876,2688.022605,-0.13036036491394043,-0.43515390157699585,0.0345807783305645,0.11820005625486374,236.95152282714844,233.4268798828125,3
1774627440.62408,2688.062809,-0.10655722767114639,-0.45859211683273315,0.02824968844652176,0.10409662127494812,237.94818115234375,233.4382781982422,3
1774627440.6641219,2688.102851,-0.08709967136383057,-0.4828875660896301,0.023078620433807373,0.12428604066371918,238.8633270263672,233.42149353027344,3
1774627440.703954,2688.142683,-0.07119473814964294,-0.514943540096283,0.018855491653084755,0.11024726927280426,239.64633178710938,233.4081573486328,3
1774627440.744016,2688.182745,-0.05819416418671608,-0.49411970376968384,0.015406224876642227,0.11038441956043243,240.31280517578125,233.39671325683594,3
1774627440.7838469,2688.222576,-0.047566886991262436,-0.47452470660209656,0.012588519603013992,0.1129118949174881,240.88018798828125,233.39144897460938,3
1774627440.824121,2688.26285,-0.03888041526079178,-0.43995407223701477,0.010286695323884487,0.11293371766805649,241.36318969726562,233.39492797851562,3
1774627440.864007,2688.302736,-0.03178030997514725,-0.4112226366996765,0.008406121283769608,0.1255880743265152,241.77423095703125,233.40631103515625,3
1774627440.903573,2688.342302,-0.02597631886601448,-0.4147452712059021,0.0068694790825247765,0.11236925423145294,242.12417602539062,233.43917846679688,3
1774627440.943589,2688.382318,-0.02123258262872696,-0.41524311900138855,0.005613990128040314,0.11440689116716385,242.4220733642578,233.43234252929688,3
1774627440.9836218,2688.422351,-0.01735510863363743,-0.43424075841903687,0.004588071722537279,0.109726183116436,242.6756591796875,233.44281005859375,3
1774627441.0235488,2688.462278,-0.014185638166964054,-0.4786773920059204,0.003749693976715207,0.10842970758676529,242.8915252685547,233.42156982421875,3
1774627441.063711,2688.50244,-0.011594920419156551,-0.517778754234314,0.003064550692215562,0.11253119260072708,243.0752716064453,233.41917419433594,3
1774627441.1034389,2688.542168,-0.009477479383349419,-0.5329925417900085,0.0025046737864613533,0.11262676864862442,243.23165893554688,233.4012908935547,3
1774627441.1433969,2688.582126,-0.007746594492346048,-0.4927196204662323,0.0020470782183110714,0.12359058856964111,243.36483764648438,233.4071044921875,3
1774627441.183656,2688.622385,-0.006331819109618664,-0.4669518768787384,0.001673103659413755,0.10765939950942993,243.47817993164062,233.42559814453125,3
1774627441.223726,2688.662455,-0.00517529109492898,-0.46699920296669006,0.0013674270594492555,0.11365379393100739,243.57469177246094,233.417724609375,3
1774627441.263645,2688.702374,-0.004230286460369825,-0.45990338921546936,0.0011176805710420012,0.10208426415920258,243.65676879882812,233.4337615966797,3
1774627441.303626,2688.742355,-0.0034576947800815105,-0.45694079995155334,0.0009135162690654397,0.10807430744171143,243.72671508789062,233.41741943359375,3
1774627441.343505,2688.782234,-0.002826231997460127,-0.45584583282470703,0.0007466585375368595,0.107001394033432,243.78622436523438,233.43397521972656,3
1774627441.383524,2688.822253,-0.002310078125447035,-0.45472052693367004,0.0006102785700932145,0.11687281727790833,243.8369140625,233.4266815185547,3
1774627441.4236848,2688.862414,-0.001888179685920477,-0.4682901203632355,0.0004988078726455569,0.10161110758781433,243.87998962402344,233.43862915039062,3
1774627441.463652,2688.902381,-0.0015433486551046371,-0.4604143798351288,0.00040770380292087793,0.12059513479471207,243.91673278808594,233.4290313720703,3
1774627441.5032809,2688.94201,-0.00126147351693362,-0.4707418978214264,0.000333235104335472,0.09571011364459991,243.94796752929688,233.4283447265625,3
1774627441.543321,2688.98205,-0.0010310955112800002,-0.4627198874950409,0.0002723732031881809,0.12121836096048355,243.97457885742188,233.43423461914062,3
1774627441.583504,2689.022233,-0.0008427902357652783,-0.4659860134124756,0.0002226277138106525,0.10696830600500107,243.99720764160156,233.42739868164062,3
1774627441.6235778,2689.062307,-0.000688867352437228,-0.461579829454422,0.00018196599557995796,0.11119429022073746,244.0164794921875,233.4483642578125,3
1774627441.663651,2689.10238,-0.0005630616215057671,-0.46648791432380676,0.00014873263717163354,0.11651081591844559,244.03286743164062,233.44168090820312,3
1774627441.703441,2689.14217,-0.00046022445894777775,-0.4641087055206299,0.00012156712909927592,0.10057345032691956,244.04684448242188,233.44818115234375,3
1774627441.743423,2689.182152,-0.0003761770494747907,-0.4653112590312958,9.936544665833935e-05,0.11318334192037582,244.0587158203125,233.44674682617188,3
1774627441.7834659,2689.222195,-0.00030747230630367994,-0.46366026997566223,8.121692371787503e-05,0.10550589114427567,244.06883239746094,233.4461212158203,3
1774627441.823513,2689.262242,-0.0002513208892196417,-0.4648454189300537,6.638452759943902e-05,0.11044931411743164,244.07745361328125,233.4569549560547,3
1774627441.863658,2689.302387,-0.00020542183483485132,-0.4692259132862091,5.426036659628153e-05,0.10697616636753082,244.08477783203125,233.44415283203125,3
1774627441.9034688,2689.342198,-0.000167904538102448,-0.46404147148132324,4.435034861671738e-05,0.1140466257929802,244.09100341796875,233.46469116210938,3
1774627441.943516,2689.382245,-0.00013723998563364148,-0.46864429116249084,3.625048339017667e-05,0.11232927441596985,244.09632873535156,233.45977783203125,3
1774627441.983461,2689.42219,-0.00011217568680876866,-0.45997607707977295,2.9629927666974254e-05,0.10495788604021072,244.10084533691406,233.47264099121094,3
1774627442.023261,2689.46199,-9.16888820938766e-05,-0.45919069647789,2.4218517864937894e-05,0.10519485175609589,244.10470581054688,233.47137451171875,3
1774627442.063329,2689.502058,-7.494400779251009e-05,-0.46191418170928955,1.979552507691551e-05,0.10349056124687195,244.10797119140625,233.47055053710938,3
1774627442.103128,2689.541857,-6.125406798673794e-05,-0.4776918888092041,1.617947236809414e-05,0.09918142110109329,244.1107635498047,233.451416015625,3
1774627442.143185,2689.581914,-5.006918581784703e-05,-0.46280553936958313,1.3225104339653626e-05,0.10053299367427826,244.11314392089844,233.486083984375,3
1774627442.18324,2689.621969,-4.092498784302734e-05,-0.47283539175987244,1.0809771083586384e-05,0.09502773731946945,244.11514282226562,233.47760009765625,3
1774627442.223233,2689.661962,-3.34508040396031e-05,-0.45958760380744934,8.835564585751854e-06,0.10146759450435638,244.11688232421875,233.46742248535156,3
1774627442.263375,2689.702104,-2.7341495297150686e-05,-0.4821334779262543,7.2218672357848845e-06,0.09405093640089035,244.1183319091797,233.4860382080078,3
1774627442.303468,2689.742197,-2.2348196580423974e-05,-0.48268651962280273,5.902953034819802e-06,0.08653073012828827,244.11959838867188,233.47592163085938,3
1774627442.343404,2689.782133,-1.8266808183398098e-05,-0.4578157663345337,4.824909410672262e-06,0.10797682404518127,244.12063598632812,233.48257446289062,3
1774627442.383519,2689.822248,-1.4930641555110924e-05,-0.4633241593837738,3.94370908907149e-06,0.09991393238306046,244.12155151367188,233.4852752685547,3
1774627442.4234068,2689.862136,-1.2203839105495717e-05,-0.48080959916114807,3.2234611353487708e-06,0.08634209632873535,244.122314453125,233.48992919921875,3
1774627442.4635699,2689.902299,-9.97508323052898e-06,-0.4534468352794647,2.6347663606429705e-06,0.1030147448182106,244.12295532226562,233.4969482421875,3
1774627442.5033529,2689.942082,-8.153278940881137e-06,-0.44512978196144104,2.153563855245011e-06,0.10557110607624054,244.12353515625,233.50433349609375,3
1774627442.543125,2689.981854,-6.6642346610024106e-06,-0.4759098291397095,1.7602554862605757e-06,0.07201188057661057,244.12399291992188,233.49899291992188,3
1774627442.58316,2690.021889,-5.447136118164053e-06,-0.445194274187088,1.4387769624590874e-06,0.10909993946552277,244.1243896484375,233.52725219726562,3
1774627442.623152,2690.061881,-4.4523176256916486e-06,-0.4698788821697235,1.1760104143831995e-06,0.08662828803062439,244.12474060058594,233.52037048339844,3
1774627442.663398,2690.102127,-3.6392020774655975e-06,-0.47003838419914246,9.612381290935446e-07,0.08334924280643463,244.12503051757812,233.5319366455078,3
1774627442.703179,2690.141908,-2.974569270008942e-06,-0.4618742763996124,7.856860975152813e-07,0.08983909338712692,244.12530517578125,233.522216796875,3
1774627442.7431319,2690.181861,-2.4311964352818904e-06,-0.4854981005191803,6.42161808173114e-07,0.08678331971168518,244.12545776367188,233.53335571289062,3
1774627442.7831519,2690.221881,-1.9872834400302963e-06,-0.46181970834732056,5.249092396297783e-07,0.10003697127103806,244.12567138671875,233.52871704101562,3
1774627442.823061,2690.26179,-1.6243430991380592e-06,-0.456988126039505,4.2904454744530085e-07,0.10342595726251602,244.12582397460938,233.537841796875,3
1774627442.863602,2690.302331,-1.3276803656481206e-06,-0.4704259932041168,3.5068566717200156e-07,0.10974203795194626,244.12594604492188,233.54641723632812,3
1774627442.9033659,2690.342095,-1.0851990737137385e-06,-0.4791482985019684,2.866380555133219e-07,0.08677473664283752,244.12606811523438,233.55416870117188,3
1774627442.94331,2690.382039,0.011139609850943089,-0.48009246587753296,-0.007858737371861935,0.06726834177970886,247.89675903320312,237.30816650390625,3
1774627442.983383,2690.422112,0.009105352684855461,-0.46609577536582947,-0.006423619110137224,0.09226282685995102,247.89688110351562,237.2692413330078,3
1774627443.024558,2690.463287,0.007442577742040157,-0.44602078199386597,-0.005250570364296436,0.11694443970918655,247.89695739746094,237.22390747070312,3
1774627443.063523,2690.502252,0.006083296611905098,-0.47693026065826416,-0.0042916289530694485,0.08089829981327057,247.89703369140625,237.22824096679688,3
1774627443.103349,2690.542078,0.004972320981323719,-0.47690054774284363,-0.0035078597720712423,0.07071878015995026,247.89706420898438,237.25747680664062,3
1774627443.143204,2690.581933,0.004064199980348349,-0.4340025782585144,-0.0028671985492110252,0.133086696267128,247.89706420898438,237.27781677246094,3
1774627443.183147,2690.621876,0.0033218322787433863,-0.46597394347190857,-0.002343473955988884,0.0901612639427185,247.89706420898438,237.32394409179688,3
1774627443.223149,2690.661878,0.002715272596105933,-0.43499481678009033,-0.0019155592890456319,0.08336073905229568,247.89706420898438,237.3798065185547,3
1774627443.2632449,2690.701974,0.002219356130808592,-0.43336963653564453,-0.001565701444633305,0.10600437968969345,247.89706420898438,237.41497802734375,3
1774627443.303017,2690.741746,0.0018140508327633142,-0.4439420998096466,-0.0012797677190974355,0.074501633644104,247.89706420898438,237.46902465820312,3
1774627443.3430479,2690.781777,0.0014827402774244547,-0.4582478702068329,-0.0010460361372679472,0.08695218712091446,247.89706420898438,237.52841186523438,3
1774627443.383187,2690.821916,0.0012119454331696033,-0.42872461676597595,-0.0008549969061277807,0.11162061989307404,247.89706420898438,237.5751495361328,3
1774627443.423372,2690.862101,0.000990611151792109,-0.4346868395805359,-0.0006988510140217841,0.12756049633026123,247.89706420898438,237.63626098632812,3
1774627443.463532,2690.902261,0.0008096904493868351,-0.4323248565196991,-0.0005712159327231348,0.11592519283294678,247.89706420898438,237.70791625976562,3
