timestamp,TimeUS,IMU,VibeX,VibeY,VibeZ,Clip
1774627427.584925,2675023654,1,0.12263105809688568,0.1926870197057724,0.09287761896848679,0
1774627427.624964,2675063693,1,0.10134217143058777,0.19196273386478424,0.0842871144413948,0
1774627427.6653259,2675104055,1,0.09009713679552078,0.19861795008182526,0.0842248946428299,0
1774627427.705054,2675143783,1,0.07532910257577896,0.2055579274892807,0.09312974661588669,0
1774627427.744952,2675183681,1,0.08657076954841614,0.20604147017002106,0.1004544049501419,0
1774627427.7849379,2675223667,1,0.13579925894737244,0.19887110590934753,0.11079802364110947,0
1774627427.824897,2675263626,1,0.12749508023262024,0.19439132511615753,0.11107133328914642,0
1774627427.8651419,2675303871,1,0.11267497390508652,0.20298421382904053,0.1089899018406868,0
1774627427.904893,2675343622,1,0.11189623922109604,0.19499748945236206,0.11926065385341644,0
1774627427.944962,2675383691,1,0.12904205918312073,0.19794690608978271,0.12600094079971313,0
1774627427.984933,2675423662,1,0.10561774671077728,0.20387080311775208,0.122151680290699,0
1774627428.024903,2675463632,1,0.09877144545316696,0.2088904231786728,0.1129281297326088,0
1774627428.065023,2675503752,1,0.09386908262968063,0.20502693951129913,0.10295838862657547,0
1774627428.104894,2675543623,1,0.08437386155128479,0.2096148580312729,0.09490135312080383,0
1774627428.144952,2675583681,1,0.09052080661058426,0.20342931151390076,0.09581202268600464,0
1774627428.184792,2675623521,1,0.09152952581644058,0.19748498499393463,0.08477704226970673,0
1774627428.224881,2675663610,1,0.10626086592674255,0.20815052092075348,0.07762154936790466,0
1774627428.265075,2675703804,1,0.12197114527225494,0.1947016716003418,0.09661860018968582,0
1774627428.3048658,2675743595,1,0.13257822394371033,0.19485172629356384,0.11285582929849625,0
1774627428.345106,2675783835,1,0.13921774923801422,0.1983530968427658,0.1255943924188614,0
1774627428.3851159,2675823845,1,0.1436411291360855,0.20155444741249084,0.11018278449773788,0
1774627428.425158,2675863887,1,0.14212599396705627,0.20530784130096436,0.10965614765882492,0
1774627428.465183,2675903912,1,0.13143323361873627,0.1976436972618103,0.1193060427904129,0
1774627428.505089,2675943818,1,0.1252918392419815,0.1880321055650711,0.10932532697916031,0
1774627428.5450249,2675983754,1,0.1157044842839241,0.1927722990512848,0.10073984414339066,0
1774627428.585075,2676023804,1,0.10604529827833176,0.18893803656101227,0.09212325513362885,0
1774627428.6253378,2676064067,1,0.09241315722465515,0.20138245820999146,0.08357567340135574,0
1774627428.6649508,2676103680,1,0.1104477047920227,0.20533743500709534,0.07978179305791855,0
1774627428.705052,2676143781,1,0.12360669672489166,0.19572898745536804,0.0919787585735321,0
1774627428.744861,2676183590,1,0.11001729965209961,0.20378556847572327,0.09225526452064514,0
1774627428.784817,2676223546,1,0.16447435319423676,0.22485250234603882,0.11832265555858612,0
1774627428.824844,2676263573,1,0.5576773285865784,0.2987827956676483,0.14207081496715546,0
1774627428.8654659,2676304195,1,0.5317467451095581,0.26190948486328125,0.16434095799922943,0
1774627428.904712,2676343441,1,0.4473741054534912,0.22728802263736725,0.1368173211812973,0
1774627428.9447489,2676383478,1,0.38151466846466064,0.18311671912670135,0.12194017320871353,0
1774627428.984835,2676423564,1,0.33529582619667053,0.15326295793056488,0.11507028341293335,0
1774627429.024772,2676463501,1,0.29391348361968994,0.1330767273902893,0.09783195704221725,0
1774627429.064967,2676503696,1,0.25910139083862305,0.1187639832496643,0.09488200396299362,0
1774627429.105002,2676543731,1,0.24373865127563477,0.12648071348667145,0.09159605950117111,0
1774627429.144959,2676583688,1,0.21659398078918457,0.10813263058662415,0.09067920595407486,0
1774627429.184946,2676623675,1,0.19356155395507812,0.09790144860744476,0.07767179608345032,0
1774627429.225004,2676663733,1,0.16179624199867249,0.08623567223548889,0.06683230400085449,0
1774627429.2652469,2676703976,1,0.12955565750598907,0.07615014165639877,0.05564272031188011,0
1774627429.304772,2676743501,1,0.10321377217769623,0.0631655678153038,0.047783177345991135,0
1774627429.345063,2676783792,1,0.08579692989587784,0.053126491606235504,0.04094940796494484,0
1774627429.384889,2676823618,1,0.07248330861330032,0.04428862780332565,0.03600093722343445,0
1774627429.424962,2676863691,1,0.06703884899616241,0.038632456213235855,0.03238948434591293,0
1774627429.4650729,2676903802,1,0.06153110787272453,0.0350772961974144,0.028823019936680794,0
1774627429.5049229,2676943652,1,0.05599110201001167,0.034983132034540176,0.030268726870417595,0
1774627429.544937,2676983666,1,0.04983320087194443,0.03379439562559128,0.02687366120517254,0
1774627429.584934,2677023663,1,0.04393992945551872,0.03183017298579216,0.02641908824443817,0
1774627429.6250908,2677063820,1,0.038162197917699814,0.03320379927754402,0.02616742067039013,0
1774627429.6650128,2677103742,1,0.03482659161090851,0.0317135825753212,0.025616910308599472,0
1774627429.705114,2677143843,1,0.03286462277173996,0.029343316331505775,0.024196211248636246,0
1774627429.7448869,2677183616,1,0.030104510486125946,0.030035199597477913,0.023361720144748688,0
1774627429.784909,2677223638,1,0.03009602054953575,0.0286074448376894,0.0247491504997015,0
1774627429.825111,2677263840,1,0.028844553977251053,0.028090763837099075,0.024731885641813278,0
1774627429.8658469,2677304576,1,0.027249300852417946,0.026037098839879036,0.023340361192822456,0
1774627429.905129,2677343858,1,0.026322467252612114,0.02458151802420616,0.022850563749670982,0
1774627429.945114,2677383843,1,0.02472885139286518,0.026316694915294647,0.025099873542785645,0
1774627429.9851298,2677423859,1,0.02473810873925686,0.026140714064240456,0.025413770228624344,0
1774627430.025272,2677464001,1,0.023593280464410782,0.02622193656861782,0.025695620104670525,0
1774627430.065279,2677504008,1,0.024334954097867012,0.025938397273421288,0.025258919224143028,0
1774627430.105037,2677543766,1,0.025554366409778595,0.02522950991988182,0.024343200027942657,0
1774627430.1450279,2677583757,1,0.025957442820072174,0.0268139336258173,0.022785009816288948,0
1774627430.185065,2677623794,1,0.02361578308045864,0.02514519914984703,0.023111356422305107,0
1774627430.225627,2677664356,1,0.02399529330432415,0.027378752827644348,0.025279605761170387,0
1774627430.265269,2677703998,1,0.026419803500175476,0.027750059962272644,0.024088317528367043,0
1774627430.304901,2677743630,1,0.028643999248743057,0.026126042008399963,0.023747839033603668,0
1774627430.344918,2677783647,1,0.02869107760488987,0.02642958238720894,0.024691367521882057,0
1774627430.384788,2677823517,1,0.02779856137931347,0.028796928003430367,0.023006737232208252,0
1774627430.425044,2677863773,1,0.02880704775452614,0.027113761752843857,0.024621089920401573,0
1774627430.464966,2677903695,1,0.027848292142152786,0.027205441147089005,0.02469988353550434,0
1774627430.504822,2677943551,1,0.030381398275494576,0.027244331315159798,0.024508599191904068,0
1774627430.544782,2677983511,1,0.03101430833339691,0.025471629574894905,0.023773841559886932,0
1774627430.584784,2678023513,1,0.03248824551701546,0.024223482236266136,0.025554442778229713,0
1774627430.624832,2678063561,1,0.029505783692002296,0.023939451202750206,0.024669146165251732,0
1774627430.6649349,2678103664,1,0.02892940118908882,0.027264365926384926,0.02424951270222664,0
1774627430.705064,2678143793,1,0.028471413999795914,0.02730001136660576,0.02262295037508011,0
1774627430.7448199,2678183549,1,0.026828652247786522,0.028181904926896095,0.02348906174302101,0
1774627430.7848039,2678223533,1,0.027916332706809044,0.026927897706627846,0.025160903111100197,0
1774627430.8248,2678263529,1,0.02574690245091915,0.026269173249602318,0.02444847859442234,0
1774627430.86547,2678304199,1,0.02499563992023468,0.024981122463941574,0.02398861013352871,0
1774627430.904794,2678343523,1,0.029372887685894966,0.024319389835000038,0.026252083480358124,0
1774627430.9447598,2678383489,1,0.026127364486455917,0.024106737226247787,0.025709964334964752,0
1774627430.984838,2678423567,1,0.028438294306397438,0.027142293751239777,0.02651583030819893,0
1774627431.02526,2678463989,1,0.028704077005386353,0.025901444256305695,0.02514718659222126,0
1774627431.06489,2678503619,1,0.0298300888389349,0.026421790942549706,0.02548200637102127,0
1774627431.104655,2678543384,1,0.026443367823958397,0.027473974972963333,0.025732964277267456,0
1774627431.144769,2678583498,1,0.026671992614865303,0.027182579040527344,0.025350624695420265,0
1774627431.184715,2678623444,1,0.03031237982213497,0.02646542899310589,0.02494083344936371,0
1774627431.224918,2678663647,1,0.02848951146006584,0.027792148292064667,0.025674646720290184,0
1774627431.26493,2678703659,1,0.029171928763389587,0.029732080176472664,0.026415344327688217,0
1774627431.3047109,2678743440,1,0.0263920109719038,0.028134148567914963,0.02623121067881584,0
1774627431.344774,2678783503,1,0.026020489633083344,0.029910476878285408,0.026343934237957,0
1774627431.384712,2678823441,1,0.026848623529076576,0.030916331335902214,0.02667151391506195,0
1774627431.424811,2678863540,1,0.026259707286953926,0.02867288328707218,0.02772838994860649,0
1774627431.4648829,2678903612,1,0.027538228780031204,0.027509765699505806,0.026806393638253212,0
1774627431.504757,2678943486,1,0.027414118871092796,0.029194241389632225,0.024574870243668556,0
1774627431.544898,2678983627,1,0.02860291674733162,0.028563717380166054,0.0273219496011734,0
1774627431.584667,2679023396,1,0.026625631377100945,0.029836509376764297,0.02670595794916153,0
1774627431.624749,2679063478,1,0.027587642893195152,0.02821928821504116,0.025476187467575073,0
1774627431.664909,2679103638,1,0.025718817487359047,0.026915358379483223,0.025117946788668633,0
1774627431.704884,2679143613,1,0.026256419718265533,0.027381693944334984,0.024322057142853737,0
1774627431.744721,2679183450,1,0.026968490332365036,0.029612435027956963,0.025798503309488297,0
1774627431.784654,2679223383,1,0.02696298062801361,0.02799256332218647,0.025945570319890976,0
1774627431.824704,2679263433,1,0.024732716381549835,0.02951737307012081,0.02547823078930378,0
1774627431.86557,2679304299,1,0.026439577341079712,0.02750040777027607,0.02605120651423931,0
1774627431.904927,2679343656,1,0.027361076325178146,0.026159249246120453,0.026183858513832092,0
1774627431.944946,2679383675,1,0.0304893646389246,0.02648417092859745,0.0245853029191494,0
1774627431.984874,2679423603,1,0.029617872089147568,0.026904884725809097,0.02720176801085472,0
1774627432.025052,2679463781,1,0.027344992384314537,0.02685386873781681,0.027275824919342995,0
1774627432.065077,2679503806,1,0.028523679822683334,0.029011541977524757,0.02605164237320423,0
1774627432.105093,2679543822,1,0.02824118174612522,0.029318036511540413,0.026508264243602753,0
1774627432.144892,2679583621,1,0.027894578874111176,0.02820645086467266,0.02445395290851593,0
1774627432.184861,2679623590,1,0.026780765503644943,0.02840283513069153,0.02761540561914444,0
1774627432.225066,2679663795,1,0.027922851964831352,0.027767697349190712,0.026574626564979553,0
1774627432.265024,2679703753,1,0.02860093116760254,0.028575407341122627,0.02611691690981388,0
1774627432.304944,2679743673,1,0.028180357068777084,0.030640525743365288,0.02518298290669918,0
1774627432.344962,2679783691,1,0.030796827748417854,0.030491026118397713,0.028306765481829643,0
1774627432.3848689,2679823598,1,0.02993202954530716,0.031789395958185196,0.02730216085910797,0
1774627432.42491,2679863639,1,0.029145672917366028,0.029859421774744987,0.026557760313153267,0
1774627432.464972,2679903701,1,0.027323799207806587,0.027809375897049904,0.02464110031723976,0
1774627432.504726,2679943455,1,0.030256077647209167,0.027530265972018242,0.02507914789021015,0
1774627432.54475,2679983479,1,0.02878250554203987,0.025180060416460037,0.025743484497070312,0
1774627432.5848,2680023529,1,0.02811584435403347,0.023348750546574593,0.02423054911196232,0
1774627432.6249568,2680063686,1,0.027640914544463158,0.02318575046956539,0.023531122133135796,0
1774627432.664898,2680103627,1,0.02609042450785637,0.02679361216723919,0.024224521592259407,0
1774627432.705216,2680143945,1,0.02706126682460308,0.02507086656987667,0.023824436590075493,0
1774627432.744991,2680183720,1,0.028080947697162628,0.028675708919763565,0.025051608681678772,0
1774627432.784798,2680223527,1,0.028722256422042847,0.02991987019777298,0.02549515664577484,0
1774627432.825006,2680263735,1,0.029110999777913094,0.030907118692994118,0.024304959923028946,0
1774627432.86499,2680303719,1,0.027614513412117958,0.031124521046876907,0.024582622572779655,0
1774627432.904805,2680343534,1,0.02609620802104473,0.030608592554926872,0.025689424946904182,0
1774627432.944831,2680383560,1,0.02798674814403057,0.02997259609401226,0.025289129465818405,0
1774627432.984729,2680423458,1,0.027602894231677055,0.03343483433127403,0.025043632835149765,0
1774627433.024886,2680463615,1,0.026096099987626076,0.0322595052421093,0.02673661708831787,0
1774627433.064766,2680503495,1,0.027054250240325928,0.028803471475839615,0.026796353980898857,0
1774627433.104501,2680543230,1,0.02834424376487732,0.02943587303161621,0.0286581851541996,0
1774627433.144577,2680583306,1,0.029973836615681648,0.02929362654685974,0.028228970244526863,0
1774627433.1845539,2680623283,1,0.027254480868577957,0.027458686381578445,0.027103643864393234,0
1774627433.224621,2680663350,1,0.02678990177810192,0.028323369100689888,0.026501072570681572,0
1774627433.264687,2680703416,1,0.02952362783253193,0.027921605855226517,0.025610994547605515,0
1774627433.304548,2680743277,1,0.029674820601940155,0.027689486742019653,0.023482656106352806,0
1774627433.3446069,2680783336,1,0.028591657057404518,0.027538971975445747,0.022961370646953583,0
1774627433.384703,2680823432,1,0.02780931442975998,0.027559220790863037,0.02133472077548504,0
1774627433.424834,2680863563,1,0.02890537492930889,0.026366308331489563,0.022764163091778755,0
1774627433.4648829,2680903612,1,0.030397193506360054,0.02975466102361679,0.022277280688285828,0
1774627433.504736,2680943465,1,0.029517434537410736,0.02805347368121147,0.027156734839081764,0
1774627433.5447319,2680983461,1,0.027977129444479942,0.027894018217921257,0.02584545873105526,0
1774627433.584761,2681023490,1,0.029970593750476837,0.028089510276913643,0.024053147062659264,0
1774627433.624875,2681063604,1,0.03138763830065727,0.02830321155488491,0.023466741666197777,0
1774627433.664649,2681103378,1,0.03151557222008705,0.02834283374249935,0.02518666908144951,0
1774627433.7048109,2681143540,1,0.02905983291566372,0.02713952399790287,0.022947078570723534,0
1774627433.744513,2681183242,1,0.0278765968978405,0.027602484449744225,0.024325624108314514,0
1774627433.78452,2681223249,1,0.027226293459534645,0.02741074748337269,0.023731781169772148,0
1774627433.824591,2681263320,1,0.02594013884663582,0.030020788311958313,0.023574871942400932,0
1774627433.8644838,2681303213,1,0.030737200751900673,0.02938937582075596,0.023215733468532562,0
1774627433.904188,2681342917,1,0.029311543330550194,0.0276931282132864,0.02732418291270733,0
1774627433.944444,2681383173,1,0.028977973386645317,0.02849876508116722,0.025585507974028587,0
1774627433.984415,2681423144,1,0.02852020412683487,0.029581721872091293,0.027186358347535133,0
1774627434.024448,2681463177,1,0.027419431135058403,0.029907071962952614,0.027708230540156364,0
1774627434.064658,2681503387,1,0.02764170803129673,0.029102260246872902,0.026386598125100136,0
1774627434.104478,2681543207,1,0.031028717756271362,0.02762482315301895,0.028160877525806427,0
1774627434.144456,2681583185,1,0.03182999789714813,0.02978680282831192,0.026608319953083992,0
1774627434.184402,2681623131,1,0.029488569125533104,0.027051636949181557,0.025687506422400475,0
1774627434.224225,2681662954,1,0.02877946011722088,0.027695879340171814,0.024264276027679443,0
1774627434.264359,2681703088,1,0.0281954538077116,0.0281740240752697,0.024065149948000908,0
1774627434.304267,2681742996,1,0.02850347012281418,0.028370540589094162,0.02630862407386303,0
1774627434.34422,2681782949,1,0.028278743848204613,0.028570780530571938,0.025921300053596497,0
1774627434.384186,2681822915,1,0.02851131744682789,0.027601875364780426,0.0271767545491457,0
1774627434.424264,2681862993,1,0.1580108255147934,0.14830751717090607,0.0879431739449501,0
1774627434.464377,2681903106,1,0.3925681412220001,0.2068539261817932,0.1718038022518158,0
1774627434.5042129,2681942942,1,0.3882010281085968,0.19294096529483795,0.17366425693035126,0
1774627434.544226,2681982955,1,0.33448782563209534,0.15939036011695862,0.15268772840499878,0
1774627434.584208,2682022937,1,0.281196266412735,0.13152067363262177,0.12714801728725433,0
1774627434.624145,2682062874,1,0.28339684009552,0.14513926208019257,0.10990111529827118,0
1774627434.664368,2682103097,1,0.3466942012310028,0.16451282799243927,0.09700622409582138,0
1774627434.704227,2682142956,1,0.3205375373363495,0.18563556671142578,0.1007915809750557,0
1774627434.744232,2682182961,1,0.26232993602752686,0.17372143268585205,0.1028011366724968,0
1774627434.784285,2682223014,1,0.2084551751613617,0.1807350367307663,0.0958508849143982,0
1774627434.8242269,2682262956,1,0.18430621922016144,0.2119782716035843,0.09522403031587601,0
1774627434.864642,2682303371,1,0.17423751950263977,0.2047221064567566,0.10696674883365631,0
1774627434.904199,2682342928,1,0.1652466207742691,0.20673514902591705,0.10499083995819092,0
1774627434.9441988,2682382928,1,0.15440841019153595,0.21789856255054474,0.10354293882846832,0
1774627434.9842129,2682422942,1,0.1332833170890808,0.21579265594482422,0.09824993461370468,0
1774627435.024184,2682462913,1,0.10924419015645981,0.22141365706920624,0.09500828385353088,0
1774627435.06435,2682503079,1,0.1094934418797493,0.22147491574287415,0.10700029879808426,0
1774627435.104105,2682542834,1,0.1007349044084549,0.21393418312072754,0.09819149225950241,0
1774627435.1442049,2682582934,1,0.09510672837495804,0.22518537938594818,0.0934089869260788,0
1774627435.18415,2682622879,1,0.0983969196677208,0.22037740051746368,0.08972673118114471,0
1774627435.224194,2682662923,1,0.11536023765802383,0.2197171300649643,0.09024021774530411,0
1774627435.264361,2682703090,1,0.14234445989131927,0.21464796364307404,0.1054883673787117,0
1774627435.304183,2682742912,1,0.1555626541376114,0.20836079120635986,0.10166845470666885,0
1774627435.3441648,2682782894,1,0.16684676706790924,0.22703835368156433,0.10501649975776672,0
1774627435.3842208,2682822950,1,0.14042066037654877,0.21652939915657043,0.10352947562932968,0
1774627435.424159,2682862888,1,0.1258983612060547,0.21549274027347565,0.09879817068576813,0
1774627435.464503,2682903232,1,0.12481801211833954,0.20517562329769135,0.0889335498213768,0
1774627435.504423,2682943152,1,0.1406826227903366,0.20888294279575348,0.10613091289997101,0
1774627435.5443969,2682983126,1,0.14437636733055115,0.25993090867996216,0.10274162888526917,0
1774627435.584315,2683023044,1,0.19182206690311432,0.26431721448898315,0.13318446278572083,0
1774627435.624455,2683063184,1,0.17178897559642792,0.24236692488193512,0.14014551043510437,0
1774627435.664504,2683103233,1,0.1588846743106842,0.2265477329492569,0.12315749377012253,0
1774627435.704313,2683143042,1,0.1548701524734497,0.21849068999290466,0.11620571464300156,0
1774627435.744408,2683183137,1,0.15050731599330902,0.22725677490234375,0.1497010439634323,0
1774627435.784416,2683223145,1,0.16898174583911896,0.2558985650539398,0.16115425527095795,0
1774627435.8244069,2683263136,1,0.1703406423330307,0.2468014806509018,0.14379368722438812,0
1774627435.864613,2683303342,1,0.15843699872493744,0.21980120241641998,0.13056045770645142,0
1774627435.904286,2683343015,1,0.14343498647212982,0.21248015761375427,0.12222564965486526,0
1774627435.9440799,2683382809,1,0.15288542211055756,0.2066524177789688,0.12743701040744781,0
1774627435.9840848,2683422814,1,0.13139300048351288,0.1988329440355301,0.12308591604232788,0
1774627436.024098,2683462827,1,0.12081637978553772,0.20672498643398285,0.1342739313840866,0
1774627436.064198,2683502927,1,0.1533306986093521,0.2003764808177948,0.12889623641967773,0
1774627436.104069,2683542798,1,0.15708744525909424,0.19612164795398712,0.11414315551519394,0
1774627436.144111,2683582840,1,0.16575931012630463,0.20023319125175476,0.11196593940258026,0
1774627436.184246,2683622975,1,0.15898030996322632,0.20451650023460388,0.11316781491041183,0
1774627436.22446,2683663189,1,0.15256361663341522,0.2199212908744812,0.11493336409330368,0
1774627436.26449,2683703219,1,0.1420745551586151,0.2230614423751831,0.11630738526582718,0
1774627436.3042939,2683743023,1,0.12920460104942322,0.2075607031583786,0.11569090932607651,0
1774627436.344318,2683783047,1,0.1201247051358223,0.2046670764684677,0.11386475712060928,0
1774627436.384296,2683823025,1,0.10562248528003693,0.1941012144088745,0.10255292057991028,0
1774627436.424366,2683863095,1,0.09770053625106812,0.19951729476451874,0.09709466248750687,0
1774627436.464256,2683902985,1,0.09090030193328857,0.19958879053592682,0.1053789034485817,0
1774627436.504052,2683942781,1,0.08703572303056717,0.19809773564338684,0.10317482054233551,0
1774627436.544067,2683982796,1,0.10954844951629639,0.189920112490654,0.10108183324337006,0
1774627436.58402,2684022749,1,0.10318611562252045,0.18323233723640442,0.10647416114807129,0
1774627436.624016,2684062745,1,0.11658469587564468,0.17493529617786407,0.10654992610216141,0
1774627436.664099,2684102828,1,0.15382657945156097,0.18320529162883759,0.12111347913742065,0
1774627436.704251,2684142980,1,0.14082470536231995,0.19238364696502686,0.12020764499902725,0
1774627436.744313,2684183042,1,0.12250500172376633,0.18237163126468658,0.11352933943271637,0
1774627436.784221,2684222950,1,0.13992182910442352,0.17354793846607208,0.10672244429588318,0
1774627436.8243608,2684263090,1,0.15514005720615387,0.17374016344547272,0.11150699853897095,0
1774627436.864553,2684303282,1,0.13859543204307556,0.16994629800319672,0.09517963230609894,0
1774627436.90418,2684342909,1,0.11572279036045074,0.1932334154844284,0.09109193086624146,0
1774627436.9442499,2684382979,1,0.09894859045743942,0.18792396783828735,0.09420916438102722,0
1774627436.984011,2684422740,1,0.09558235853910446,0.1675824671983719,0.08791244775056839,0
1774627437.023889,2684462618,1,0.0942513570189476,0.16240468621253967,0.09537017345428467,0
1774627437.0640929,2684502822,1,0.0880635678768158,0.15277233719825745,0.08472679555416107,0
1774627437.103977,2684542706,1,0.09496338665485382,0.19197596609592438,0.0802346020936966,0
1774627437.143987,2684582716,1,0.08807558566331863,0.18272759020328522,0.07595455646514893,0
1774627437.183918,2684622647,1,0.10277225822210312,0.16099433600902557,0.0788249671459198,0
1774627437.22406,2684662789,1,0.08839038759469986,0.15090297162532806,0.07877197861671448,0
1774627437.264132,2684702861,1,0.09043378382921219,0.14730304479599,0.0722624883055687,0
1774627437.304223,2684742952,1,0.10145635902881622,0.14504216611385345,0.07328364253044128,0
1774627437.344193,2684782922,1,0.10737286508083344,0.15915803611278534,0.07232467085123062,0
1774627437.38425,2684822979,1,0.10178574174642563,0.15584252774715424,0.0767340213060379,0
1774627437.424177,2684862906,1,0.09684460610151291,0.1428636759519577,0.08200445771217346,0
1774627437.464386,2684903115,1,0.10614755749702454,0.14550217986106873,0.08865362405776978,0
1774627437.5042129,2684942942,1,0.12264745682477951,0.14485368132591248,0.09528645128011703,0
1774627437.543937,2684982666,1,0.12378724664449692,0.15812210738658905,0.09110233187675476,0
1774627437.583932,2685022661,1,0.13498170673847198,0.16053135693073273,0.09314756095409393,0
1774627437.62394,2685062669,1,0.14536891877651215,0.1590387225151062,0.10365301370620728,0
1774627437.664041,2685102770,1,0.1900843232870102,0.17220765352249146,0.11607921868562698,0
1774627437.704087,2685142816,1,0.16246546804904938,0.20285183191299438,0.13905839622020721,0
1774627437.743981,2685182710,1,0.1593572050333023,0.23737499117851257,0.14954224228858948,0
1774627437.78393,2685222659,1,0.1640002429485321,0.21729299426078796,0.1440584510564804,0
1774627437.824311,2685263040,1,0.1960608810186386,0.19348737597465515,0.15544691681861877,0
1774627437.86439,2685303119,1,0.17203514277935028,0.18426281213760376,0.1339738517999649,0
1774627437.904119,2685342848,1,0.1788846254348755,0.19752340018749237,0.12918208539485931,0
1774627437.944169,2685382898,1,0.23537613451480865,0.31048786640167236,0.14743348956108093,0
1774627437.984078,2685422807,1,0.5488686561584473,0.6324523091316223,0.2298298180103302,0
1774627438.024216,2685462945,1,1.2737165689468384,0.90803462266922,0.2857572138309479,0
1774627438.064252,2685502981,1,1.9995585680007935,1.1695995330810547,0.3513484597206116,0
1774627438.104194,2685542923,1,2.3959221839904785,1.448885202407837,0.7477306127548218,0
1774627438.143889,2685582618,1,2.6937551498413086,1.6078166961669922,1.0491420030593872,0
1774627438.183865,2685622594,1,2.882782220840454,2.0708343982696533,1.0105698108673096,0
1774627438.223955,2685662684,1,2.95076584815979,2.2335660457611084,1.072249174118042,0
1774627438.264063,2685702792,1,2.7768399715423584,2.310804605484009,1.0311236381530762,0
1774627438.3038769,2685742606,1,2.865598201751709,2.3231453895568848,1.0058188438415527,0
1774627438.344193,2685782922,1,2.8536136150360107,2.415963888168335,1.0573245286941528,0
1774627438.383888,2685822617,1,2.9538919925689697,2.4338228702545166,1.0544637441635132,0
1774627438.4238598,2685862589,1,2.7401909828186035,2.456453800201416,1.0277467966079712,0
1774627438.4640338,2685902763,1,2.7733070850372314,2.4827253818511963,1.0344586372375488,0
1774627438.503845,2685942574,1,2.930426597595215,2.4303178787231445,1.1116704940795898,0
1774627438.543843,2685982572,1,2.824544668197632,2.4587254524230957,1.0067824125289917,0
1774627438.583844,2686022573,1,2.8262524604797363,2.462587594985962,1.021429181098938,0
1774627438.623805,2686062534,1,2.795454263687134,2.430990695953369,0.9671065807342529,0
1774627438.663996,2686102725,1,2.8349990844726562,2.38942289352417,1.0371992588043213,0
1774627438.7037408,2686142470,1,2.7224631309509277,2.420128583908081,1.0003445148468018,0
1774627438.743809,2686182538,1,2.9487507343292236,2.4479432106018066,0.9535879492759705,0
1774627438.783819,2686222548,1,2.683515787124634,2.556898832321167,0.9848189949989319,0
1774627438.823823,2686262552,1,2.727954149246216,2.65279483795166,0.9351323246955872,0
1774627438.86407,2686302799,1,2.9212875366210938,2.6273648738861084,1.028577208518982,0
1774627438.903781,2686342510,1,2.8338401317596436,2.6115550994873047,0.9209038615226746,0
1774627438.943811,2686382540,1,2.957153081893921,2.5183684825897217,0.9974558353424072,0
1774627438.984004,2686422733,1,2.880049467086792,2.512077569961548,0.9407745003700256,0
1774627439.024175,2686462904,1,3.0982320308685303,2.385073661804199,1.0261441469192505,0
1774627439.0641809,2686502910,1,2.9211528301239014,2.0587053298950195,0.9693676233291626,0
1774627439.1040149,2686542744,1,2.5334713459014893,1.6256343126296997,0.8775566816329956,0
1774627439.144031,2686582760,1,2.29133939743042,1.277029275894165,0.7794739007949829,0
1774627439.183753,2686622482,1,2.151519775390625,0.9969496130943298,0.7349615097045898,0
1774627439.223872,2686662601,1,2.057528018951416,0.7964084148406982,0.8533093929290771,0
1774627439.26392,2686702649,1,2.153618574142456,0.6735261678695679,1.0553696155548096,0
1774627439.303784,2686742513,1,2.131624937057495,0.5869393348693848,1.2022459506988525,0
1774627439.343801,2686782530,1,1.9857916831970215,0.6352865099906921,1.1654200553894043,0
1774627439.383729,2686822458,1,2.094559669494629,0.6551398038864136,1.2062453031539917,0
1774627439.423752,2686862481,1,2.2478716373443604,0.736996054649353,1.2091599702835083,0
1774627439.463923,2686902652,1,2.393388032913208,0.8451496958732605,1.2419710159301758,0
1774627439.503738,2686942467,1,2.29221248626709,0.782058596611023,1.1946645975112915,0
1774627439.5439289,2686982658,1,2.6300578117370605,0.7792105078697205,1.307657241821289,0
1774627439.5840409,2687022770,1,2.6177515983581543,0.7744502425193787,1.3150678873062134,0
1774627439.624115,2687062844,1,2.570157766342163,1.0622831583023071,1.2405976057052612,0
1774627439.664046,2687102775,1,2.574892044067383,1.3139864206314087,1.238435983657837,0
1774627439.703951,2687142680,1,2.528010129928589,1.410501480102539,1.2644903659820557,0
1774627439.743977,2687182706,1,2.438107967376709,1.663035273551941,1.155848503112793,0
1774627439.78388,2687222609,1,2.4611432552337646,1.778169870376587,1.1328260898590088,0
1774627439.824045,2687262774,1,2.547696352005005,1.8617156744003296,1.1298162937164307,0
1774627439.864228,2687302957,1,2.579667329788208,1.985550045967102,1.1547307968139648,0
1774627439.903867,2687342596,1,2.543863296508789,2.051940441131592,1.135915994644165,0
1774627439.943886,2687382615,1,2.796895980834961,2.0732100009918213,1.1405274868011475,0
1774627439.9839199,2687422649,1,2.8458962440490723,2.0909647941589355,1.2429726123809814,0
1774627440.0244179,2687463147,1,2.6716556549072266,2.0180604457855225,1.1814792156219482,0
1774627440.064206,2687502935,1,2.845656156539917,1.986013650894165,1.1357461214065552,0
1774627440.104104,2687542833,1,2.9578378200531006,1.8924787044525146,1.2463961839675903,0
1774627440.143993,2687582722,1,2.6009490489959717,1.5990560054779053,1.2049496173858643,0
1774627440.1841478,2687622877,1,2.2389907836914062,1.2620092630386353,1.0922267436981201,0
1774627440.224683,2687663412,1,2.1678431034088135,0.9924197196960449,1.0063775777816772,0
1774627440.264257,2687702986,1,2.3334708213806152,0.8169897198677063,0.9470295906066895,0
1774627440.304152,2687742881,1,2.3968353271484375,0.658026397228241,0.8664143681526184,0
1774627440.343924,2687782653,1,2.412980079650879,0.5219178795814514,0.7932925224304199,0
1774627440.383851,2687822580,1,2.4392921924591064,0.42650219798088074,0.7233099937438965,0
1774627440.424243,2687862972,1,2.413132667541504,0.3936232626438141,0.6659572720527649,0
1774627440.464231,2687902960,1,2.306838274002075,0.3940334618091583,0.8081077337265015,0
1774627440.504045,2687942774,1,2.5625312328338623,0.43020597100257874,1.0842012166976929,0
1774627440.544008,2687982737,1,2.5408012866973877,0.6346341967582703,1.222824215888977,0
1774627440.584135,2688022864,1,2.4264020919799805,0.8534408807754517,1.191973090171814,0
1774627440.6243958,2688063125,1,2.324519634246826,1.2238560914993286,1.157538890838623,0
1774627440.664396,2688103125,1,2.5632710456848145,1.5198721885681152,1.1983894109725952,0
1774627440.7042758,2688143005,1,2.500319242477417,1.7691397666931152,1.0971165895462036,0
1774627440.744271,2688183000,1,2.3791298866271973,1.8635425567626953,1.0691218376159668,0
1774627440.784122,2688222851,1,2.6051058769226074,1.9721572399139404,1.1537729501724243,0
1774627440.824468,2688263197,1,2.6175055503845215,2.1091480255126953,1.1204100847244263,0
1774627440.864331,2688303060,1,2.597710371017456,2.148303270339966,1.0683609247207642,0
1774627440.903822,2688342551,1,2.7129199504852295,2.2427453994750977,1.0553581714630127,0
1774627440.9438589,2688382588,1,2.6617512702941895,2.283745765686035,1.060705304145813,0
1774627440.9839818,2688422711,1,2.5155436992645264,2.2683868408203125,1.050004243850708,0
1774627441.02392,2688462649,1,2.702559232711792,2.3954222202301025,1.1034761667251587,0
1774627441.063968,2688502697,1,2.596360921859741,2.486222267150879,1.0360132455825806,0
1774627441.103754,2688542483,1,2.560275077819824,2.5466995239257812,1.0054140090942383,0
1774627441.1437728,2688582502,1,2.4337189197540283,2.3060905933380127,0.9800597429275513,0
1774627441.183981,2688622710,1,2.012676477432251,1.9257550239562988,0.9581570625305176,0
1774627441.224052,2688662781,1,1.701301097869873,1.609939694404602,0.7976052761077881,0
1774627441.263973,2688702702,1,1.5414878129959106,1.378761887550354,0.6373511552810669,0
1774627441.30394,2688742669,1,1.3626126050949097,1.2160637378692627,0.5734264254570007,0
1774627441.343814,2688782543,1,1.1395500898361206,1.077419638633728,0.5055995583534241,0
1774627441.383836,2688822565,1,1.1520304679870605,1.002202033996582,0.43000873923301697,0
1774627441.424038,2688862767,1,1.06356680393219,0.9833331108093262,0.4730542004108429,0
1774627441.463989,2688902718,1,0.9089297652244568,0.9051174521446228,0.4470173120498657,0
1774627441.50354,2688942269,1,0.9208499193191528,0.8631881475448608,0.4663758873939514,0
1774627441.54364,2688982369,1,0.9200664758682251,0.8642666935920715,0.4875696003437042,0
1774627441.583795,2689022524,1,0.8516811728477478,0.8463925123214722,0.40516653656959534,0
1774627441.623848,2689062577,1,0.8717929124832153,0.9010455012321472,0.41930708289146423,0
1774627441.663995,2689102724,1,0.8547050952911377,0.8785209059715271,0.3974970579147339,0
1774627441.703789,2689142518,1,0.951278805732727,0.919215738773346,0.35806286334991455,0
1774627441.743756,2689182485,1,0.8723223805427551,0.9025322794914246,0.368343710899353,0
1774627441.783784,2689222513,1,0.848389208316803,0.8691123127937317,0.4128014147281647,0
1774627441.823802,2689262531,1,0.880850613117218,0.8668285012245178,0.41083621978759766,0
1774627441.863963,2689302692,1,0.7543952465057373,0.8513362407684326,0.40331289172172546,0
1774627441.9037309,2689342460,1,0.7942455410957336,0.8561639189720154,0.5035428404808044,0
1774627441.943887,2689382616,1,0.8470746278762817,0.8392173647880554,0.4816886782646179,0
1774627441.983826,2689422555,1,0.9714599847793579,0.875846266746521,0.46162787079811096,0
1774627442.023584,2689462313,1,0.8485819697380066,0.7565322518348694,0.48810046911239624,0
1774627442.063632,2689502361,1,0.7430411577224731,0.6643733978271484,0.47521457076072693,0
1774627442.103491,2689542220,1,0.9349367618560791,0.6350123286247253,0.5797366499900818,0
1774627442.143528,2689582257,1,0.9733027219772339,0.6018262505531311,0.6488462090492249,0
1774627442.183579,2689622308,1,0.8476014733314514,0.6034078001976013,0.5890423059463501,0
1774627442.223497,2689662226,1,0.9272338151931763,0.6341894268989563,0.6131329536437988,0
1774627442.263689,2689702418,1,0.9287962913513184,0.6130008101463318,0.6743276119232178,0
1774627442.303742,2689742471,1,0.947779655456543,0.5400583744049072,0.6227537989616394,0
1774627442.343725,2689782454,1,1.0490518808364868,0.560019850730896,0.7272720336914062,0
1774627442.3838348,2689822564,1,0.9500313401222229,0.5165297389030457,0.6308535933494568,0
1774627442.4237149,2689862444,1,1.008418083190918,0.5691403746604919,0.6957360506057739,0
1774627442.463819,2689902548,1,1.0821765661239624,0.5650392770767212,0.6546941995620728,0
1774627442.503699,2689942428,1,0.9212782382965088,0.5550660490989685,0.5891720056533813,0
1774627442.543485,2689982214,1,0.9954467415809631,0.6199067234992981,0.9510717391967773,0
1774627442.583495,2690022224,1,0.9806267619132996,0.5958652496337891,0.8550786375999451,0
1774627442.6234848,2690062214,1,0.8820435404777527,0.5906776785850525,0.9117200970649719,0
1774627442.663714,2690102443,1,0.8225682973861694,0.5524318218231201,1.0053791999816895,0
1774627442.7034369,2690142166,1,0.793168842792511,0.5922294855117798,0.999333918094635,0
1774627442.7434669,2690182196,1,0.7715759873390198,0.6407570242881775,0.929224967956543,0
1774627442.7835069,2690222236,1,0.7911710739135742,0.5882037281990051,0.9142647981643677,0
1774627442.823422,2690262151,1,0.7460633516311646,0.6378743648529053,0.8870059251785278,0
1774627442.86391,2690302639,1,0.7280516624450684,0.6766120195388794,1.1685938835144043,0
1774627442.903677,2690342406,1,0.8204280138015747,0.6659744381904602,1.0653128623962402,0
1774627442.943677,2690382406,1,0.7550455927848816,0.6770516037940979,1.025402307510376,0
1774627442.9837399,2690422469,1,0.7187042832374573,0.6783366799354553,1.1357202529907227,0
1774627443.024868,2690463597,1,0.8001389503479004,0.6547314524650574,1.2724409103393555,0
1774627443.063845,2690502574,1,0.7162232398986816,0.6322407126426697,1.3403655290603638,0
1774627443.103731,2690542460,1,0.7389723658561707,0.7196154594421387,1.5829190015792847,0
1774627443.14348,2690582209,1,0.7764348387718201,0.6794476509094238,1.7361665964126587,0
1774627443.1834838,2690622213,1,0.7617945075035095,0.6526346802711487,1.5083057880401611,0
1774627443.223495,2690662224,1,0.7035230994224548,0.6419433951377869,1.2291425466537476,0
1774627443.263608,2690702337,1,0.6253901720046997,0.5694183111190796,1.0505719184875488,0
1774627443.303413,2690742142,1,0.6026723384857178,0.5180810689926147,0.966768205165863,0
1774627443.343451,2690782180,1,0.5802886486053467,0.6087848544120789,1.173987627029419,0
1774627443.383475,2690822204,1,0.6073834896087646,0.6147137880325317,1.1433546543121338,0
1774627443.423718,2690862447,1,0.580451488494873,0.5986923575401306,1.2287156581878662,0
1774627443.463813,2690902542,1,0.4943419396877289,0.5056575536727905,1.1255794763565063,0
1774627443.503607,2690942336,1,0.4703903794288635,0.5232115387916565,1.0054758787155151,0
1774627443.543622,2690982351,1,0.4939860701560974,0.5235738158226013,0.8381250500679016,0
1774627443.583658,2691022387,1,0.520088255405426,0.4934283494949341,0.8386259078979492,0
1774627443.62375,2691062479,1,0.5054389834403992,0.5473618507385254,0.8116543292999268,0
1774627443.663593,2691102322,1,0.47209423780441284,0.4950823187828064,0.7496224641799927,0
1774627443.703425,2691142154,1,0.696556806564331,0.5690222978591919,0.8739191889762878,0
1774627443.7433639,2691182093,1,0.9596877694129944,0.6933441162109375,0.9181199669837952,0
1774627443.783369,2691222098,1,0.8630642294883728,0.7424923777580261,0.8439182043075562,0
1774627443.823407,2691262136,1,0.9263675212860107,0.6716185212135315,0.9834290146827698,0
1774627443.863594,2691302323,1,0.9062798023223877,0.846530020236969,1.0543053150177002,0
1774627443.903334,2691342063,1,0.9110470414161682,0.7725976705551147,0.9380189776420593,0
1774627443.943415,2691382144,1,0.8118414878845215,0.6681910753250122,0.80801922082901,0
1774627443.98333,2691422059,1,0.7090297341346741,0.5711441040039062,0.7409882545471191,0
1774627444.023361,2691462090,1,0.6301212310791016,0.4925686717033386,0.6703776121139526,0
1774627444.0634809,2691502210,1,0.5596699714660645,0.47396451234817505,0.6875429749488831,0
1774627444.103349,2691542078,1,0.5138023495674133,0.48208141326904297,0.737277626991272,0
1774627444.143314,2691582043,1,0.5076143741607666,0.4576209485530853,0.6838156580924988,0
1774627444.183305,2691622034,1,0.5663076639175415,0.48804572224617004,0.7875025868415833,0
1774627444.223389,2691662118,1,0.6670722961425781,0.5065495371818542,0.7462576031684875,0
1774627444.263534,2691702263,1,0.7281656265258789,0.5311960577964783,0.7164822816848755,0
1774627444.303341,2691742070,1,0.9985673427581787,0.49414315819740295,0.7181041836738586,0
1774627444.3433518,2691782081,1,1.5636889934539795,0.5003229975700378,0.822169840335846,0
1774627444.3834178,2691822147,1,1.7035846710205078,0.4205665588378906,0.806666910648346,0
1774627444.424598,2691863327,1,1.6940901279449463,0.3906724154949188,0.8605740666389465,0
1774627444.4635959,2691902325,1,1.4227068424224854,0.5341820120811462,0.8348783254623413,0
1774627444.5034359,2691942165,1,1.224647879600525,0.5444726347923279,0.800638735294342,0
1774627444.54346,2691982189,1,1.062254786491394,0.5488351583480835,0.6921513080596924,0
1774627444.583467,2692022196,1,0.9966748356819153,0.600398063659668,0.6961443424224854,0
1774627444.623584,2692062313,1,0.8642939925193787,0.6023162007331848,0.7801900506019592,0
1774627444.663567,2692102296,1,0.7999355792999268,0.5566604137420654,1.0356369018554688,0
1774627444.703565,2692142294,1,0.7305610775947571,0.6194131970405579,1.038438320159912,0
1774627444.743512,2692182241,1,0.6889587640762329,0.6213456392288208,1.2203611135482788,0
1774627444.783427,2692222156,1,0.6687672138214111,0.5730717182159424,1.9039753675460815,0
1774627444.823592,2692262321,1,0.704718828201294,0.5903042554855347,1.7517565488815308,0
1774627444.863672,2692302401,1,0.7169137597084045,0.7110598683357239,1.5987657308578491,0
1774627444.903425,2692342154,1,0.7292630672454834,0.6172332763671875,1.3249452114105225,0
1774627444.9434159,2692382145,1,0.7723024487495422,0.6284946203231812,1.2885669469833374,0
1774627444.983389,2692422118,1,0.7658743858337402,0.653549075126648,1.1784279346466064,0
1774627445.0235078,2692462237,1,0.8418546915054321,0.6374917030334473,1.1289530992507935,0
1774627445.063752,2692502481,1,1.2172209024429321,0.5995001196861267,1.067116141319275,0
1774627445.103628,2692542357,1,1.6522119045257568,0.5531033873558044,1.0104386806488037,0
1774627445.143442,2692582171,1,1.836432933807373,0.47087574005126953,0.8690580129623413,0
1774627445.183443,2692622172,1,1.8199759721755981,0.4128260314464569,0.9503203630447388,0
1774627445.224624,2692663353,1,1.5525927543640137,0.5545357465744019,0.9335739612579346,0
1774627445.263681,2692702410,1,1.3802108764648438,0.5671632885932922,0.8800229430198669,0
1774627445.3035328,2692742262,1,1.1948812007904053,0.5469452142715454,1.0282429456710815,0
1774627445.34333,2692782059,1,1.053767442703247,0.5359439849853516,1.0130289793014526,0
1774627445.383211,2692821940,1,0.9811475276947021,0.5492809414863586,0.8956918716430664,0
1774627445.423205,2692861934,1,0.9577431082725525,0.48525843024253845,1.181746244430542,0
1774627445.4633288,2692902058,1,0.901357114315033,0.6060745120048523,1.2145525217056274,0
1774627445.503183,2692941912,1,0.8494452834129333,0.5719128251075745,1.2993625402450562,0
1774627445.5434499,2692982179,1,0.8717775344848633,0.5516083240509033,1.200430989265442,0
1774627445.583433,2693022162,1,0.925040066242218,0.6693577766418457,1.1337920427322388,0
1774627445.6245708,2693063300,1,0.8554083704948425,0.7104353904724121,1.171778917312622,0
1774627445.663521,2693102250,1,0.8275059461593628,0.7149405479431152,1.2691242694854736,0
1774627445.703559,2693142288,1,0.8279296159744263,0.7240804433822632,1.1802825927734375,0
1774627445.7435029,2693182232,1,0.7805340886116028,0.621377170085907,1.0866835117340088,0
1774627445.783414,2693222143,1,0.6726360321044922,0.5363191366195679,1.0156959295272827,0
1774627445.8235168,2693262246,1,0.5820993781089783,0.48404231667518616,0.8516117334365845,0
1774627445.863405,2693302134,1,0.4896061420440674,0.48908644914627075,0.7331393361091614,0
1774627445.903162,2693341891,1,0.4998614192008972,0.5920360088348389,0.6653252243995667,0
1774627445.943127,2693381856,1,0.5024480819702148,0.6002882122993469,0.6774197816848755,0
1774627445.983136,2693421865,1,0.525759756565094,0.5916372537612915,0.6158033609390259,0
1774627446.0231779,2693461907,1,0.5740379691123962,0.570065438747406,0.5558244585990906,0
1774627446.063292,2693502021,1,0.5902278423309326,0.5669366121292114,0.5415247082710266,0
1774627446.103174,2693541903,1,0.7647749185562134,0.6163080334663391,0.6302439570426941,0
1774627446.143127,2693581856,1,0.7375347018241882,0.5544016361236572,0.5841072797775269,0
1774627446.1831179,2693621847,1,0.6548823118209839,0.5063901543617249,0.5589402914047241,0
1774627446.2246609,2693663390,1,0.6286329030990601,0.4841649830341339,0.503072202205658,0
1774627446.263596,2693702325,1,0.7280460596084595,0.678006112575531,1.2214471101760864,0
1774627446.303427,2693742156,1,0.8146495819091797,0.5893516540527344,1.3719679117202759,0
1774627446.3434079,2693782137,1,0.7971470952033997,0.6530088782310486,1.3203372955322266,0
1774627446.383331,2693822060,1,0.8229116201400757,0.6637741327285767,1.3282350301742554,0
1774627446.423054,2693861783,1,0.8606177568435669,0.6130348443984985,1.2430977821350098,0
1774627446.4633288,2693902058,1,0.7634217143058777,0.5546813011169434,1.0969213247299194,0
1774627446.503095,2693941824,1,0.6673941612243652,0.5471359491348267,0.9579111933708191,0
1774627446.543076,2693981805,1,0.6056464910507202,0.5092675089836121,0.7882880568504333,0
1774627446.583081,2694021810,1,0.6182335615158081,0.5543506741523743,0.9575933814048767,0
1774627446.623024,2694061753,1,0.5793491005897522,0.6159936785697937,0.8739226460456848,0
1774627446.663176,2694101905,1,0.5693550705909729,0.5400992631912231,0.7570104002952576,0
1774627446.703196,2694141925,1,0.568753182888031,0.5988340377807617,0.7530910968780518,0
1774627446.743111,2694181840,1,0.6165441274642944,0.6551657915115356,0.8533523082733154,0
1774627446.783045,2694221774,1,0.666714608669281,0.6621271967887878,0.9562708139419556,0
1774627446.823085,2694261814,1,0.776983916759491,0.6712574362754822,1.1038362979888916,0
1774627446.8632329,2694301962,1,0.7777749300003052,0.6594690084457397,1.023210048675537,0
1774627446.903013,2694341742,1,0.8147326111793518,0.6167595982551575,0.9331493973731995,0
1774627446.943038,2694381767,1,0.7493935227394104,0.6030409932136536,0.9570037126541138,0
1774627446.9830968,2694421826,1,0.7771138548851013,0.6905578374862671,1.117475986480713,0
1774627447.023027,2694461756,1,0.8112469911575317,0.7017202973365784,1.0492256879806519,0
1774627447.0631979,2694501927,1,0.7805672287940979,0.7613518834114075,0.9875955581665039,0
1774627447.103071,2694541800,1,0.8593524694442749,0.7660755515098572,0.9527133703231812,0
1774627447.143259,2694581988,1,0.961018979549408,0.7209722995758057,0.8550976514816284,0
1774627447.183289,2694622018,1,0.8942985534667969,0.652819037437439,0.8058117032051086,0
1774627447.224519,2694663248,1,0.944116473197937,0.5946310758590698,0.8825892806053162,0
1774627447.263525,2694702254,1,0.9838103652000427,0.6453933715820312,0.8676416873931885,0
1774627447.303285,2694742014,1,0.9524440169334412,0.6089914441108704,0.818447470664978,0
1774627447.343327,2694782056,1,1.005359172821045,0.6907118558883667,0.8532987236976624,0
1774627447.383219,2694821948,1,1.0360844135284424,0.6785352826118469,0.7596269249916077,0
1774627447.423316,2694862045,1,0.9765684008598328,0.6456655263900757,0.7609689235687256,0
1774627447.463242,2694901971,1,0.9553529620170593,0.6254920363426208,0.7335469722747803,0
1774627447.502955,2694941684,1,0.9923527836799622,0.6464327573776245,0.6917757987976074,0
1774627447.544368,2694983097,1,0.9468316435813904,0.6210216879844666,0.7989225387573242,0
1774627447.583153,2695021882,1,0.9418550133705139,0.6491749882698059,0.8695330619812012,0
1774627447.623211,2695061940,1,0.9475531578063965,0.6244879961013794,0.8411495089530945,0
1774627447.663302,2695102031,1,0.8786752820014954,0.5986607074737549,0.8261356949806213,0
1774627447.703188,2695141917,1,0.8984029293060303,0.6249824166297913,0.8690209984779358,0
1774627447.743317,2695182046,1,0.9346192479133606,0.6193892955780029,0.9644309282302856,0
1774627447.783195,2695221924,1,0.878460168838501,0.6769735217094421,0.8972383737564087,0
1774627447.823255,2695261984,1,0.8891377449035645,0.6293357014656067,1.0087209939956665,0
1774627447.863633,2695302362,1,0.827292799949646,0.5654150247573853,0.9652578830718994,0
1774627447.903353,2695342082,1,0.7785163521766663,0.5986714959144592,0.9836199283599854,0
1774627447.943204,2695381933,1,0.8275904059410095,0.6041381359100342,0.941028892993927,0
1774627447.983213,2695421942,1,0.7674499154090881,0.5527080297470093,0.7858480215072632,0
1774627448.024328,2695463057,1,0.7907267212867737,0.5871971845626831,0.7916553616523743,0
1774627448.063417,2695502146,1,0.8195840120315552,0.5902916193008423,0.7171235084533691,0
1774627448.102967,2695541696,1,0.7864960432052612,0.5919249057769775,0.6722102165222168,0
1774627448.14291,2695581639,1,0.8099744319915771,0.592465877532959,0.7641481757164001,0
1774627448.18298,2695621709,1,0.7896192073822021,0.5865172743797302,0.7270441055297852,0
1774627448.2230198,2695661749,1,0.8291206955909729,0.6060432195663452,0.9101981520652771,0
1774627448.263119,2695701848,1,0.87244713306427,0.706184983253479,0.884681224822998,0
1774627448.3030019,2695741731,1,0.8798137307167053,0.6363581418991089,0.946304202079773,0
1774627448.342959,2695781688,1,0.8959896564483643,0.6460096836090088,0.8711832165718079,0
1774627448.382874,2695821603,1,0.7983827590942383,0.5638012290000916,0.8373239040374756,0
1774627448.424322,2695863051,1,0.8178030848503113,0.5828372836112976,0.8490311503410339,0
1774627448.463373,2695902102,1,0.7786591053009033,0.5760183334350586,0.8044159412384033,0
1774627448.503129,2695941858,1,0.7225192785263062,0.5626925230026245,0.9934036731719971,0
1774627448.543144,2695981873,1,0.7240399122238159,0.5671699643135071,0.9453650712966919,0
1774627448.58309,2696021819,1,0.6831203103065491,0.5681284070014954,0.7989549040794373,0
1774627448.624291,2696063020,1,0.7067681550979614,0.5210314393043518,0.8100831508636475,0
1774627448.663303,2696102032,1,0.7345960736274719,0.5926321744918823,0.950598418712616,0
1774627448.702965,2696141694,1,0.7480962872505188,0.5877838134765625,1.0655988454818726,0
1774627448.7429419,2696181671,1,0.7418110370635986,0.6224481463432312,0.9911811947822571,0
1774627448.7828178,2696221547,1,0.7998214960098267,0.6223247647285461,0.8977317810058594,0
1774627448.822947,2696261676,1,0.8324715495109558,0.6695827841758728,0.8649856448173523,0
1774627448.863107,2696301836,1,0.8604823350906372,0.6801782846450806,1.0200221538543701,0
1774627448.90287,2696341599,1,0.843508243560791,0.6540376543998718,1.0848361253738403,0
1774627448.943114,2696381843,1,0.856935977935791,0.6571214199066162,1.009377360343933,0
1774627448.983111,2696421840,1,0.7969618439674377,0.6451744437217712,0.9671124219894409,0
1774627449.0242128,2696462942,1,0.8376478552818298,0.6348823308944702,0.8788328170776367,0
1774627449.063288,2696502017,1,0.8713973164558411,0.6123469471931458,0.7713233828544617,0
1774627449.102992,2696541721,1,0.8245866894721985,0.6071527004241943,0.7586745619773865,0
1774627449.1430619,2696581791,1,0.8651955723762512,0.6426287293434143,0.7920439839363098,0
1774627449.183346,2696622075,1,0.8902495503425598,0.6578049659729004,0.8837751746177673,0
1774627449.2242959,2696663025,1,0.8458021283149719,0.6313298344612122,0.8592321872711182,0
1774627449.263247,2696701976,1,0.8558165431022644,0.6608244180679321,0.8261854648590088,0
1774627449.303129,2696741858,1,0.8134607076644897,0.7092264890670776,1.0405182838439941,0
1774627449.343128,2696781857,1,0.8444880843162537,0.7232919335365295,0.9470445513725281,0
1774627449.38309,2696821819,1,0.8360629081726074,0.7025319933891296,0.9863572716712952,0
1774627449.424247,2696862976,1,0.858134388923645,0.6561155915260315,1.0965229272842407,0
1774627449.4631948,2696901924,1,0.816127359867096,0.661641001701355,0.9547703266143799,0
1774627449.502977,2696941706,1,0.8153428435325623,0.6446003317832947,0.9017482995986938,0
1774627449.543357,2696982086,1,0.7917641401290894,0.6114746332168579,0.8447474837303162,0
1774627449.58323,2697021959,1,0.7915652990341187,0.599500834941864,0.7667691707611084,0
1774627449.6241949,2697062924,1,0.7873683571815491,0.6175573468208313,0.9127280712127686,0
1774627449.6632419,2697101971,1,0.7873991131782532,0.668621301651001,0.8394755125045776,0
1774627449.703151,2697141880,1,0.8213118314743042,0.6637842655181885,0.8370871543884277,0
1774627449.743053,2697181782,1,0.8058723211288452,0.7057592272758484,0.891403079032898,0
1774627449.782795,2697221524,1,0.7361421585083008,0.6917247772216797,0.8699616193771362,0
1774627449.822833,2697261562,1,0.7048301100730896,0.5956934094429016,0.8112160563468933,0
1774627449.863045,2697301774,1,0.6497597098350525,0.5544372797012329,0.7584745287895203,0
1774627449.902844,2697341573,1,0.6163080930709839,0.567005455493927,0.7935301065444946,0
1774627449.9427729,2697381502,1,0.6310011744499207,0.6406697034835815,1.133946180343628,0
1774627449.982959,2697421688,1,0.5771370530128479,0.573684811592102,1.1108497381210327,0
1774627450.023098,2697461827,1,0.5701125264167786,0.5355808138847351,0.9482892155647278,0
1774627450.063148,2697501877,1,0.5925447940826416,0.48760807514190674,1.017575979232788,0
1774627450.103208,2697541937,1,0.5803422927856445,0.5267829298973083,1.1012725830078125,0
1774627450.142993,2697581722,1,0.6843581795692444,0.5550957918167114,1.115649700164795,0
1774627450.18297,2697621699,1,0.6623364686965942,0.5369501709938049,1.0268666744232178,0
1774627450.224168,2697662897,1,0.5905166268348694,0.46411919593811035,0.9828854203224182,0
1774627450.263217,2697701946,1,0.5496838688850403,0.4764346182346344,1.0265247821807861,0
1774627450.303027,2697741756,1,0.5205027461051941,0.4377090334892273,0.9579804539680481,0
1774627450.3431249,2697781854,1,0.4736243486404419,0.47163528203964233,1.073848009109497,0
1774627450.382775,2697821504,1,0.5595730543136597,0.5304991602897644,1.1187831163406372,0
1774627450.422719,2697861448,1,0.5387593507766724,0.5744094848632812,0.965325117111206,0
1774627450.4628289,2697901558,1,0.5358123183250427,0.5732311606407166,0.9301353096961975,0
1774627450.502666,2697941395,1,0.5561734437942505,0.5337029695510864,1.006460189819336,0
1774627450.542759,2697981488,1,0.5161759853363037,0.5603444576263428,1.1085554361343384,0
1774627450.582669,2698021398,1,0.5727501511573792,0.5827258825302124,1.0853021144866943,0
1774627450.62273,2698061459,1,0.5348515510559082,0.5959845185279846,1.1061203479766846,0
1774627450.6630359,2698101765,1,0.5941706895828247,0.5164299607276917,1.0630518198013306,0
1774627450.702926,2698141655,1,0.6415602564811707,0.47324833273887634,1.0299205780029297,0
1774627450.742893,2698181622,1,0.5925078988075256,0.4993162155151367,0.9873717427253723,0
1774627450.7830288,2698221758,1,0.5647497177124023,0.4644767642021179,0.8877536654472351,0
1774627450.824194,2698262923,1,0.5033907890319824,0.4930347502231598,0.9094144105911255,0
1774627450.8632889,2698302018,1,0.5317466259002686,0.6353017091751099,1.0381180047988892,0
1774627450.90268,2698341409,1,0.5276964902877808,0.5883010029792786,0.9554060697555542,0
1774627450.9426448,2698381374,1,0.4926512837409973,0.5868541598320007,0.8144491910934448,0
1774627450.9826748,2698421404,1,0.6580063104629517,0.681846559047699,0.8840817213058472,0
1774627451.0226479,2698461377,1,0.6187833547592163,0.5936310887336731,0.9789996147155762,0
1774627451.062823,2698501552,1,0.5781822204589844,0.5756351351737976,0.9928698539733887,0
1774627451.1026819,2698541411,1,0.5833454728126526,0.6008142828941345,1.1667897701263428,0
1774627451.1426249,2698581354,1,0.6075802445411682,0.5375438332557678,1.2693414688110352,0
1774627451.182617,2698621346,1,0.5589491724967957,0.56104576587677,1.1450194120407104,0
1774627451.222653,2698661382,1,0.5200660824775696,0.5111861228942871,0.9677603840827942,0
1774627451.262858,2698701587,1,0.523925244808197,0.5042753219604492,0.9656279683113098,0
1774627451.3026218,2698741351,1,0.5876106023788452,0.6031047105789185,0.8921800255775452,0
1774627451.342717,2698781446,1,0.5875884890556335,0.5769472122192383,0.8913350701332092,0
1774627451.382583,2698821312,1,0.5982835292816162,0.5573229193687439,0.7595908045768738,0
1774627451.422626,2698861355,1,0.5877381563186646,0.4968588948249817,0.6704149842262268,0
1774627451.462755,2698901484,1,0.5836946964263916,0.5659337639808655,0.9859836101531982,0
1774627451.502639,2698941368,1,0.7959190607070923,0.5966155529022217,1.0552632808685303,0
1774627451.542695,2698981424,1,0.8469583988189697,0.7115876078605652,1.405232548713684,0
1774627451.582644,2699021373,1,0.8648282289505005,0.6050094366073608,1.5296937227249146,0
1774627451.6226559,2699061385,1,0.7408587336540222,0.5461570620536804,1.253438949584961,0
1774627451.663007,2699101736,1,0.6423611044883728,0.543973445892334,1.0915294885635376,0
1774627451.7028,2699141529,1,0.5918677449226379,0.5909696817398071,1.009861946105957,0
1774627451.7429419,2699181671,1,0.6171332001686096,0.6092786192893982,1.0035912990570068,0
1774627451.782855,2699221584,1,0.5614060759544373,0.5773559212684631,0.9737598299980164,0
1774627451.824072,2699262801,1,0.7319408059120178,0.6505265235900879,0.989996612071991,0
1774627451.863077,2699301806,1,0.6838234066963196,0.745035707950592,1.5402452945709229,0
1774627451.902826,2699341555,1,0.7974799871444702,0.7909376621246338,1.3794965744018555,0
1774627451.942913,2699381642,1,0.7175319194793701,0.7521288394927979,1.191377878189087,0
1774627451.9828799,2699421609,1,0.7196795344352722,0.7314122915267944,1.0697599649429321,0
1774627452.022538,2699461267,1,0.7002371549606323,0.7665115594863892,1.0689610242843628,0
1774627452.062964,2699501693,1,0.7307271361351013,0.7658290863037109,1.236432433128357,0
1774627452.10268,2699541409,1,0.7908532023429871,0.9127941727638245,1.8213768005371094,0
1774627452.1426969,2699581426,1,0.7462331056594849,1.084133267402649,1.7087583541870117,0
1774627452.182687,2699621416,1,0.6504852175712585,0.971338152885437,1.6980302333831787,0
1774627452.222888,2699661617,1,0.7429931163787842,0.9028487205505371,1.6395173072814941,0
1774627452.262958,2699701687,1,0.7667508125305176,0.8986480236053467,1.6729975938796997,0
1774627452.302747,2699741476,1,0.7350393533706665,0.8076037764549255,1.757946491241455,0
1774627452.342817,2699781546,1,0.7622039914131165,0.7556222081184387,1.5384684801101685,0
1774627452.382762,2699821491,1,0.8480611443519592,0.7278319001197815,1.2824636697769165,0
1774627452.4228199,2699861549,1,0.7552196979522705,0.871024489402771,1.2476154565811157,0
1774627452.462978,2699901707,1,0.7158471941947937,0.8646353483200073,1.11030113697052,0
1774627452.502786,2699941515,1,0.7146640419960022,0.7463725209236145,1.0130609273910522,0
1774627452.54282,2699981549,1,0.6422892808914185,0.8612957000732422,0.9539428353309631,0
1774627452.582479,2700021208,1,0.6574692130088806,0.7578630447387695,0.9126275181770325,0
1774627452.622555,2700061284,1,0.682492196559906,0.7060524225234985,0.9747034311294556,0
1774627452.662637,2700101366,1,0.7102903127670288,0.6747419238090515,1.1171162128448486,0
1774627452.7025359,2700141265,1,0.6714882254600525,0.7756820917129517,0.9676877856254578,0
1774627452.742564,2700181293,1,0.6474334001541138,0.8355149030685425,1.0579999685287476,0
1774627452.782536,2700221265,1,0.6464685201644897,0.73656165599823,0.9946284294128418,0
1774627452.822473,2700261202,1,0.714023768901825,0.8959808945655823,1.1333763599395752,0
1774627452.862752,2700301481,1,0.8575397729873657,0.8758779764175415,1.4418538808822632,0
1774627452.902758,2700341487,1,0.9045755863189697,0.9538174271583557,1.309198021888733,0
1774627452.942716,2700381445,1,0.8111292123794556,0.9465036392211914,1.0737214088439941,0
1774627452.982815,2700421544,1,0.7131977677345276,0.8745942115783691,1.0789560079574585,0
1774627453.022847,2700461576,1,0.8152485489845276,0.7577595114707947,1.2023876905441284,0
1774627453.062806,2700501535,1,0.6965456604957581,0.6864179968833923,1.0104962587356567,0
1774627453.1026978,2700541427,1,0.713219404220581,0.7092592120170593,1.0132566690444946,0
1774627453.142505,2700581234,1,0.7447162866592407,0.6645487546920776,0.9333449602127075,0
1774627453.182453,2700621182,1,0.8273400068283081,0.6601026654243469,1.2320045232772827,0
1774627453.2225149,2700661244,1,0.8754296898841858,0.6577826738357544,1.590714931488037,0
1774627453.262866,2700701595,1,0.9199578762054443,0.7100651264190674,1.6770931482315063,0
1774627453.302604,2700741333,1,0.805396556854248,0.8036702275276184,1.5055464506149292,0
1774627453.342628,2700781357,1,0.9811894297599792,0.9464278221130371,1.4724059104919434,0
1774627453.382613,2700821342,1,0.9556620121002197,1.0142598152160645,1.2105412483215332,0
1774627453.422685,2700861414,1,0.8504961729049683,1.0321298837661743,1.2203549146652222,0
1774627453.462727,2700901456,1,0.8693243265151978,0.9429223537445068,1.0368742942810059,0
1774627453.502608,2700941337,1,0.744694173336029,0.8347325921058655,1.0350664854049683,0
1774627453.542598,2700981327,1,0.8471839427947998,0.7809039950370789,1.193340539932251,0
1774627453.582542,2701021271,1,0.7976263761520386,0.6740186810493469,1.3941360712051392,0
1774627453.622743,2701061472,1,0.9499651193618774,0.6807355880737305,1.60247802734375,0
1774627453.662746,2701101475,1,0.9208093881607056,0.740778386592865,1.8716551065444946,0
1774627453.702622,2701141351,1,0.928256630897522,0.8171349763870239,1.5099272727966309,0
1774627453.7426488,2701181378,1,0.8321536779403687,0.7509961128234863,1.3237066268920898,0
1774627453.782561,2701221290,1,0.7528392672538757,0.7532673478126526,1.111488938331604,0
1774627453.8226519,2701261381,1,0.7531283497810364,0.7170732021331787,1.0412064790725708,0
